{"type":"FeatureCollection","features":[{"type":"Feature","geometry":{"type":"Point","coordinates":[-3.187645,55.944143]},"properties":{"location":"bound.ends.matter","rgb-string":"#80ff00","marker-color":"#80ff00","marker-symbol":"lighthouse"}},{"type":"Feature","geometry":{"type":"Point","coordinates":[-3.187789,55.944386]},"properties":{"location":"thank.salsa.brain","rgb-string":"#80ff00","marker-color":"#80ff00","marker-symbol":"lighthouse"}},{"type":"Feature","geometry":{"type":"Point","coordinates":[-3.187307,55.944494]},"properties":{"location":"only.fairly.rift","rgb-string":"#ffc000","marker-color":"#ffc000","marker-symbol":"danger"}},{"type":"Feature","geometry":{"type":"Point","coordinates":[-3.186344,55.942958]},"properties":{"location":"hers.banks.goat","rgb-string":"#ff0000","marker-color":"#ff0000","marker-symbol":"danger"}},{"type":"Feature","geometry":{"type":"Point","coordinates":[-3.185621,55.943065]},"properties":{"location":"toned.deflection.bland","rgb-string":"#c0ff00","marker-color":"#c0ff00","marker-symbol":"lighthouse"}},{"type":"Feature","geometry":{"type":"Point","coordinates":[-3.185814,55.943551]},"properties":{"location":"record.sofa.sock","rgb-string":"#ff4000","marker-color":"#ff4000","marker-symbol":"danger"}},{"type":"Feature","geometry":{"type":"Point","coordinates":[-3.184803,55.943173]},"properties":{"location":"brings.remedy.latter","rgb-string":"#ff0000","marker-color":"#ff0000","marker-symbol":"danger"}},{"type":"Feature","geometry":{"type":"Point","coordinates":[-3.184658,55.943874]},"properties":{"location":"rider.mile.lime","rgb-string":"#ffc000","marker-color":"#ffc000","marker-symbol":"danger"}},{"type":"Feature","geometry":{"type":"Point","coordinates":[-3.18567,55.944359]},"properties":{"location":"atoms.vanish.foods","rgb-string":"#ffc000","marker-color":"#ffc000","marker-symbol":"danger"}},{"type":"Feature","geometry":{"type":"Point","coordinates":[-3.186537,55.944925]},"properties":{"location":"laws.merit.bleak","rgb-string":"#ff8000","marker-color":"#ff8000","marker-symbol":"danger"}},{"type":"Feature","geometry":{"type":"Point","coordinates":[-3.186777,55.944575]},"properties":{"location":"artist.gets.react","rgb-string":"#ffc000","marker-color":"#ffc000","marker-symbol":"danger"}},{"type":"Feature","geometry":{"type":"Point","coordinates":[-3.186922,55.945437]},"properties":{"location":"spent.spoon.bolt","rgb-string":"#ff8000","marker-color":"#ff8000","marker-symbol":"danger"}},{"type":"Feature","geometry":{"type":"Point","coordinates":[-3.186729,55.945653]},"properties":{"location":"hidden.handle.softly","rgb-string":"#000000","marker-color":"#000000","marker-symbol":"cross"}},{"type":"Feature","geometry":{"type":"Point","coordinates":[-3.186296,55.945761]},"properties":{"location":"posts.kicked.universally","rgb-string":"#ff8000","marker-color":"#ff8000","marker-symbol":"danger"}},{"type":"Feature","geometry":{"type":"Point","coordinates":[-3.185814,55.94603]},"properties":{"location":"renew.slows.basket","rgb-string":"#ffc000","marker-color":"#ffc000","marker-symbol":"danger"}},{"type":"Feature","geometry":{"type":"Point","coordinates":[-3.185332,55.946138]},"properties":{"location":"prime.rent.silk","rgb-string":"#ff4000","marker-color":"#ff4000","marker-symbol":"danger"}},{"type":"Feature","geometry":{"type":"Point","coordinates":[-3.185043,55.945868]},"properties":{"location":"rider.aura.bulb","rgb-string":"#ff8000","marker-color":"#ff8000","marker-symbol":"danger"}},{"type":"Feature","geometry":{"type":"Point","coordinates":[-3.184513,55.945302]},"properties":{"location":"settle.title.united","rgb-string":"#ffc000","marker-color":"#ffc000","marker-symbol":"danger"}},{"type":"Feature","geometry":{"type":"Point","coordinates":[-3.187404,55.945949]},"properties":{"location":"slips.mass.baking","rgb-string":"#ff0000","marker-color":"#ff0000","marker-symbol":"danger"}},{"type":"Feature","geometry":{"type":"Point","coordinates":[-3.188319,55.945518]},"properties":{"location":"skills.less.herb","rgb-string":"#ff8000","marker-color":"#ff8000","marker-symbol":"danger"}},{"type":"Feature","geometry":{"type":"Point","coordinates":[-3.188801,55.945437]},"properties":{"location":"shady.soft.phones","rgb-string":"#ff8000","marker-color":"#ff8000","marker-symbol":"danger"}},{"type":"Feature","geometry":{"type":"Point","coordinates":[-3.188897,55.945707]},"properties":{"location":"stops.else.chats","rgb-string":"#ff0000","marker-color":"#ff0000","marker-symbol":"danger"}},{"type":"Feature","geometry":{"type":"Point","coordinates":[-3.189186,55.945087]},"properties":{"location":"number.exist.rate","rgb-string":"#80ff00","marker-color":"#80ff00","marker-symbol":"lighthouse"}},{"type":"Feature","geometry":{"type":"Point","coordinates":[-3.18986,55.945491]},"properties":{"location":"turkey.limit.ramp","rgb-string":"#ffc000","marker-color":"#ffc000","marker-symbol":"danger"}},{"type":"Feature","geometry":{"type":"Point","coordinates":[-3.189957,55.94603]},"properties":{"location":"love.behind.orchestra","rgb-string":"#ff0000","marker-color":"#ff0000","marker-symbol":"danger"}},{"type":"Feature","geometry":{"type":"Point","coordinates":[-3.191594,55.945195]},"properties":{"location":"hills.feels.tunes","rgb-string":"#ff0000","marker-color":"#ff0000","marker-symbol":"danger"}},{"type":"Feature","geometry":{"type":"Point","coordinates":[-3.191065,55.94444]},"properties":{"location":"paying.crowd.weep","rgb-string":"#40ff00","marker-color":"#40ff00","marker-symbol":"lighthouse"}},{"type":"Feature","geometry":{"type":"Point","coordinates":[-3.191113,55.943901]},"properties":{"location":"spicy.bunch.shady","rgb-string":"#40ff00","marker-color":"#40ff00","marker-symbol":"lighthouse"}},{"type":"Feature","geometry":{"type":"Point","coordinates":[-3.190197,55.943443]},"properties":{"location":"arts.dish.scarcely","rgb-string":"#40ff00","marker-color":"#40ff00","marker-symbol":"lighthouse"}},{"type":"Feature","geometry":{"type":"Point","coordinates":[-3.190583,55.942823]},"properties":{"location":"tonic.bliss.cove","rgb-string":"#00ff00","marker-color":"#00ff00","marker-symbol":"lighthouse"}},{"type":"Feature","geometry":{"type":"Point","coordinates":[-3.191161,55.942742]},"properties":{"location":"along.spill.limp","rgb-string":"#00ff00","marker-color":"#00ff00","marker-symbol":"lighthouse"}},{"type":"Feature","geometry":{"type":"Point","coordinates":[-3.188608,55.943119]},"properties":{"location":"groups.ideas.script","rgb-string":"#40ff00","marker-color":"#40ff00","marker-symbol":"lighthouse"}},{"type":"Feature","geometry":{"type":"Point","coordinates":[-3.187837,55.943227]},"properties":{"location":"gums.clock.modes","rgb-string":"#80ff00","marker-color":"#80ff00","marker-symbol":"lighthouse"}},{"type":"Feature","geometry":{"type":"LineString","coordinates":[[-3.1878,55.9444],[-3.1876072,55.9441702],[-3.1877098,55.9438883],[-3.1877619,55.9441837],[-3.187814,55.9444792],[-3.187514,55.9444792],[-3.187214,55.9444792],[-3.187064,55.9442194],[-3.186914,55.9439595],[-3.186764,55.9436997],[-3.186614,55.9434399],[-3.1869094,55.9433878],[-3.1866796,55.943195],[-3.1865296,55.9429352],[-3.1862341,55.9429873],[-3.1859387,55.9430394],[-3.1856433,55.9430915],[-3.1857459,55.9433734],[-3.1854504,55.9433213],[-3.185155,55.9432692],[-3.1848595,55.9432171],[-3.1847569,55.943499],[-3.1847048,55.9437945],[-3.1849646,55.9439445],[-3.1852245,55.9440945],[-3.1854843,55.9442445],[-3.1857441,55.9443945],[-3.1860039,55.9445445],[-3.1862337,55.9447373],[-3.1864935,55.9448873],[-3.1866863,55.9446575],[-3.1864044,55.9447601],[-3.1865973,55.9449899],[-3.1867901,55.9452197],[-3.1869401,55.9454795],[-3.1867103,55.9456724],[-3.1864148,55.9457244],[-3.186155,55.9458744],[-3.1858952,55.9460244],[-3.1855998,55.9460765],[-3.1853043,55.9461286],[-3.1850745,55.9459358],[-3.1848817,55.945706],[-3.1846889,55.9454762],[-3.184459,55.9452833],[-3.1847545,55.9453354],[-3.1850499,55.9453875],[-3.1853454,55.9454396],[-3.1856408,55.9454917],[-3.1859363,55.9455438],[-3.1862317,55.9455959],[-3.1865136,55.9456985],[-3.1867955,55.9458011],[-3.187091,55.9458532],[-3.1873729,55.9459558],[-3.1876327,55.9458058],[-3.1879146,55.9457032],[-3.1881744,55.9455532],[-3.1884698,55.9455011],[-3.1887653,55.945449],[-3.1889153,55.9457088],[-3.1890179,55.9454269],[-3.1891679,55.9451671],[-3.1894498,55.9452697],[-3.1897096,55.9454197],[-3.1898122,55.9457016],[-3.1899148,55.9459835],[-3.1901746,55.9458335],[-3.1904565,55.9457309],[-3.1907163,55.9455809],[-3.1909982,55.9454783],[-3.191258,55.9453283],[-3.19154,55.9452257],[-3.19139,55.9449659],[-3.19124,55.9447061],[-3.19109,55.9444463],[-3.19109,55.9441463],[-3.19109,55.9438463],[-3.190808,55.9437437],[-3.1905482,55.9435937],[-3.1902663,55.9434911],[-3.1903689,55.9432092],[-3.1905189,55.9429494],[-3.1908008,55.9428468],[-3.1910828,55.9427442],[-3.1907873,55.9427962],[-3.1904919,55.9428483],[-3.1901964,55.9429004],[-3.189901,55.9429525],[-3.1896055,55.9430046],[-3.1893101,55.9430567],[-3.1890147,55.9431088],[-3.1887147,55.9431088],[-3.1884192,55.9431609],[-3.1881238,55.943213],[-3.1878238,55.943213],[-3.1878238,55.943513],[-3.1878238,55.943813],[-3.1878238,55.944113]]},"properties":{}}]}