{"type":"FeatureCollection","features":[{"type":"Feature","geometry":{"type":"Point","coordinates":[-3.187789,55.944386]},"properties":{"location":"thank.salsa.brain","rgb-string":"#000000","marker-color":"#000000","marker-symbol":"cross"}},{"type":"Feature","geometry":{"type":"Point","coordinates":[-3.188271,55.944063]},"properties":{"location":"rush.crown.link","rgb-string":"#00ff00","marker-color":"#00ff00","marker-symbol":"lighthouse"}},{"type":"Feature","geometry":{"type":"Point","coordinates":[-3.188945,55.943928]},"properties":{"location":"noted.friday.jams","rgb-string":"#00ff00","marker-color":"#00ff00","marker-symbol":"lighthouse"}},{"type":"Feature","geometry":{"type":"Point","coordinates":[-3.189138,55.944197]},"properties":{"location":"spoon.invest.every","rgb-string":"#000000","marker-color":"#000000","marker-symbol":"cross"}},{"type":"Feature","geometry":{"type":"Point","coordinates":[-3.189523,55.943551]},"properties":{"location":"cars.attend.hotels","rgb-string":"#40ff00","marker-color":"#40ff00","marker-symbol":"lighthouse"}},{"type":"Feature","geometry":{"type":"Point","coordinates":[-3.188704,55.943389]},"properties":{"location":"system.speak.guard","rgb-string":"#000000","marker-color":"#000000","marker-symbol":"cross"}},{"type":"Feature","geometry":{"type":"Point","coordinates":[-3.189908,55.942904]},"properties":{"location":"second.launch.miles","rgb-string":"#40ff00","marker-color":"#40ff00","marker-symbol":"lighthouse"}},{"type":"Feature","geometry":{"type":"Point","coordinates":[-3.190294,55.943712]},"properties":{"location":"sculpture.shot.melon","rgb-string":"#40ff00","marker-color":"#40ff00","marker-symbol":"lighthouse"}},{"type":"Feature","geometry":{"type":"Point","coordinates":[-3.191113,55.943901]},"properties":{"location":"spicy.bunch.shady","rgb-string":"#40ff00","marker-color":"#40ff00","marker-symbol":"lighthouse"}},{"type":"Feature","geometry":{"type":"Point","coordinates":[-3.191065,55.94444]},"properties":{"location":"paying.crowd.weep","rgb-string":"#80ff00","marker-color":"#80ff00","marker-symbol":"lighthouse"}},{"type":"Feature","geometry":{"type":"Point","coordinates":[-3.191016,55.945248]},"properties":{"location":"maple.limit.hotels","rgb-string":"#000000","marker-color":"#000000","marker-symbol":"cross"}},{"type":"Feature","geometry":{"type":"Point","coordinates":[-3.191594,55.945195]},"properties":{"location":"hills.feels.tunes","rgb-string":"#ff4000","marker-color":"#ff4000","marker-symbol":"danger"}},{"type":"Feature","geometry":{"type":"Point","coordinates":[-3.192221,55.945114]},"properties":{"location":"useful.hike.trades","rgb-string":"#ff8000","marker-color":"#ff8000","marker-symbol":"danger"}},{"type":"Feature","geometry":{"type":"Point","coordinates":[-3.191883,55.946003]},"properties":{"location":"stone.undulation.poems","rgb-string":"#ff8000","marker-color":"#ff8000","marker-symbol":"danger"}},{"type":"Feature","geometry":{"type":"Point","coordinates":[-3.189957,55.94603]},"properties":{"location":"love.behind.orchestra","rgb-string":"#ff0000","marker-color":"#ff0000","marker-symbol":"danger"}},{"type":"Feature","geometry":{"type":"Point","coordinates":[-3.189379,55.945949]},"properties":{"location":"coherent.saints.stuck","rgb-string":"#ff4000","marker-color":"#ff4000","marker-symbol":"danger"}},{"type":"Feature","geometry":{"type":"Point","coordinates":[-3.189186,55.945087]},"properties":{"location":"number.exist.rate","rgb-string":"#c0ff00","marker-color":"#c0ff00","marker-symbol":"lighthouse"}},{"type":"Feature","geometry":{"type":"Point","coordinates":[-3.187259,55.945653]},"properties":{"location":"diner.leaves.mutual","rgb-string":"#ff8000","marker-color":"#ff8000","marker-symbol":"danger"}},{"type":"Feature","geometry":{"type":"Point","coordinates":[-3.186296,55.945761]},"properties":{"location":"posts.kicked.universally","rgb-string":"#ffc000","marker-color":"#ffc000","marker-symbol":"danger"}},{"type":"Feature","geometry":{"type":"Point","coordinates":[-3.185814,55.94603]},"properties":{"location":"renew.slows.basket","rgb-string":"#ff8000","marker-color":"#ff8000","marker-symbol":"danger"}},{"type":"Feature","geometry":{"type":"Point","coordinates":[-3.186537,55.944925]},"properties":{"location":"laws.merit.bleak","rgb-string":"#000000","marker-color":"#000000","marker-symbol":"cross"}},{"type":"Feature","geometry":{"type":"Point","coordinates":[-3.186777,55.944575]},"properties":{"location":"artist.gets.react","rgb-string":"#c0ff00","marker-color":"#c0ff00","marker-symbol":"lighthouse"}},{"type":"Feature","geometry":{"type":"Point","coordinates":[-3.186007,55.943901]},"properties":{"location":"teams.mild.played","rgb-string":"#ffc000","marker-color":"#ffc000","marker-symbol":"danger"}},{"type":"Feature","geometry":{"type":"Point","coordinates":[-3.185814,55.943551]},"properties":{"location":"record.sofa.sock","rgb-string":"#ff4000","marker-color":"#ff4000","marker-symbol":"danger"}},{"type":"Feature","geometry":{"type":"Point","coordinates":[-3.185621,55.943065]},"properties":{"location":"toned.deflection.bland","rgb-string":"#c0ff00","marker-color":"#c0ff00","marker-symbol":"lighthouse"}},{"type":"Feature","geometry":{"type":"Point","coordinates":[-3.186248,55.942796]},"properties":{"location":"under.retire.bump","rgb-string":"#000000","marker-color":"#000000","marker-symbol":"cross"}},{"type":"Feature","geometry":{"type":"Point","coordinates":[-3.18697,55.942688]},"properties":{"location":"strut.river.surely","rgb-string":"#ffc000","marker-color":"#ffc000","marker-symbol":"danger"}},{"type":"Feature","geometry":{"type":"Point","coordinates":[-3.18514,55.943685]},"properties":{"location":"hello.love.keys","rgb-string":"#000000","marker-color":"#000000","marker-symbol":"cross"}},{"type":"Feature","geometry":{"type":"Point","coordinates":[-3.184658,55.943874]},"properties":{"location":"rider.mile.lime","rgb-string":"#ffc000","marker-color":"#ffc000","marker-symbol":"danger"}},{"type":"Feature","geometry":{"type":"Point","coordinates":[-3.184899,55.944736]},"properties":{"location":"slide.leads.stores","rgb-string":"#ff4000","marker-color":"#ff4000","marker-symbol":"danger"}},{"type":"Feature","geometry":{"type":"Point","coordinates":[-3.185236,55.944575]},"properties":{"location":"acid.chair.butter","rgb-string":"#ff8000","marker-color":"#ff8000","marker-symbol":"danger"}},{"type":"Feature","geometry":{"type":"Point","coordinates":[-3.18567,55.944359]},"properties":{"location":"atoms.vanish.foods","rgb-string":"#ff4000","marker-color":"#ff4000","marker-symbol":"danger"}},{"type":"Feature","geometry":{"type":"Point","coordinates":[-3.191161,55.943362]},"properties":{"location":"meal.feed.large","rgb-string":"#00ff00","marker-color":"#00ff00","marker-symbol":"lighthouse"}},{"type":"Feature","geometry":{"type":"LineString","coordinates":[[-3.1878,55.9444],[-3.1876072,55.9441702],[-3.1877098,55.9438883],[-3.1877619,55.9441837],[-3.187814,55.9444792],[-3.1880438,55.9442863],[-3.1882366,55.9440565],[-3.1885321,55.9440044],[-3.1888275,55.9439523],[-3.1890573,55.9441452],[-3.1892501,55.9439153],[-3.189443,55.9436855],[-3.1891611,55.9435829],[-3.1888792,55.9434803],[-3.189139,55.9433303],[-3.1893988,55.9431803],[-3.1896586,55.9430303],[-3.1899184,55.9428803],[-3.190021,55.9431622],[-3.190171,55.943422],[-3.1902736,55.9437039],[-3.190569,55.943756],[-3.1908645,55.9438081],[-3.1911464,55.9439107],[-3.1910943,55.9442062],[-3.1910422,55.9445016],[-3.1910422,55.9448016],[-3.1910422,55.9451016],[-3.1913377,55.9451537],[-3.1916331,55.9452058],[-3.1919285,55.9451537],[-3.192224,55.9451016],[-3.1921214,55.9453835],[-3.1920188,55.9456654],[-3.1919162,55.9459473],[-3.1916162,55.9459473],[-3.1913162,55.9459473],[-3.1910162,55.9459473],[-3.1907162,55.9459473],[-3.1904207,55.9459994],[-3.1901207,55.9459994],[-3.1898207,55.9459994],[-3.1895253,55.9459473],[-3.1894227,55.9456654],[-3.1893201,55.9453835],[-3.1892175,55.9451016],[-3.1889355,55.9452042],[-3.1886536,55.9453068],[-3.1883582,55.9453589],[-3.1880763,55.9454615],[-3.1877808,55.9455136],[-3.1874989,55.9456162],[-3.1872035,55.9456683],[-3.1869081,55.9457204],[-3.1866081,55.9457204],[-3.1863126,55.9457725],[-3.1860528,55.9459225],[-3.1857709,55.9460251],[-3.1859209,55.9457653],[-3.1861137,55.9455355],[-3.1862637,55.9452757],[-3.1864566,55.9450459],[-3.1866066,55.9447861],[-3.1867994,55.9445563],[-3.1870949,55.9445042],[-3.1873903,55.9444521],[-3.1872403,55.9441923],[-3.1869449,55.9441402],[-3.1869449,55.9438402],[-3.1866449,55.9438402],[-3.1863494,55.9438923],[-3.1860494,55.9438923],[-3.1858566,55.9436625],[-3.185754,55.9433805],[-3.1856514,55.9430986],[-3.1859112,55.9429486],[-3.1861931,55.942846],[-3.1864885,55.9427939],[-3.186784,55.9427418],[-3.1865242,55.9428918],[-3.1862643,55.9430418],[-3.1860045,55.9431918],[-3.1857447,55.9433418],[-3.1854849,55.9434918],[-3.1852251,55.9436418],[-3.1849432,55.9437445],[-3.1846613,55.9438471],[-3.1847639,55.944129],[-3.184816,55.9444244],[-3.1849186,55.9447063],[-3.1852005,55.9446037],[-3.1854603,55.9444537],[-3.1857422,55.9443511],[-3.1860377,55.944299],[-3.1863331,55.9442469],[-3.1861831,55.9439871],[-3.1864786,55.943935],[-3.186774,55.9438829],[-3.1870694,55.9438308],[-3.1873649,55.9437787],[-3.1876603,55.9437266],[-3.1879558,55.9436745],[-3.1882512,55.9436224],[-3.1885467,55.9435704],[-3.1888421,55.9435183],[-3.1891421,55.9435183],[-3.1894421,55.9435183],[-3.1897375,55.9434662],[-3.1900375,55.9434662],[-3.190333,55.9434141],[-3.190633,55.9434141],[-3.1909284,55.943362],[-3.1912284,55.943362],[-3.1909465,55.9434646],[-3.1906646,55.9435672],[-3.1903827,55.9436698],[-3.1901008,55.9437724],[-3.1898189,55.943875],[-3.189537,55.9439776],[-3.1892415,55.9440297],[-3.1889461,55.9440818],[-3.1886642,55.9441844],[-3.1883687,55.9442365],[-3.1880868,55.9443391]]},"properties":{}}]}