{"type":"FeatureCollection","features":[{"type":"Feature","geometry":{"type":"Point","coordinates":[-3.187982,55.943497]},"properties":{"location":"scare.cubs.resort","rgb-string":"#40ff00","marker-color":"#40ff00","marker-symbol":"lighthouse"}},{"type":"Feature","geometry":{"type":"Point","coordinates":[-3.187789,55.944386]},"properties":{"location":"thank.salsa.brain","rgb-string":"#80ff00","marker-color":"#80ff00","marker-symbol":"lighthouse"}},{"type":"Feature","geometry":{"type":"Point","coordinates":[-3.187885,55.944709]},"properties":{"location":"hurt.green.filer","rgb-string":"#c0ff00","marker-color":"#c0ff00","marker-symbol":"lighthouse"}},{"type":"Feature","geometry":{"type":"Point","coordinates":[-3.187307,55.944494]},"properties":{"location":"only.fairly.rift","rgb-string":"#ffc000","marker-color":"#ffc000","marker-symbol":"danger"}},{"type":"Feature","geometry":{"type":"Point","coordinates":[-3.187018,55.943982]},"properties":{"location":"renew.ears.tend","rgb-string":"#80ff00","marker-color":"#80ff00","marker-symbol":"lighthouse"}},{"type":"Feature","geometry":{"type":"Point","coordinates":[-3.186537,55.944063]},"properties":{"location":"lime.learns.front","rgb-string":"#ff8000","marker-color":"#ff8000","marker-symbol":"danger"}},{"type":"Feature","geometry":{"type":"Point","coordinates":[-3.185236,55.944575]},"properties":{"location":"acid.chair.butter","rgb-string":"#ff4000","marker-color":"#ff4000","marker-symbol":"danger"}},{"type":"Feature","geometry":{"type":"Point","coordinates":[-3.184899,55.944736]},"properties":{"location":"slide.leads.stores","rgb-string":"#c0ff00","marker-color":"#c0ff00","marker-symbol":"lighthouse"}},{"type":"Feature","geometry":{"type":"Point","coordinates":[-3.184513,55.945302]},"properties":{"location":"settle.title.united","rgb-string":"#ff8000","marker-color":"#ff8000","marker-symbol":"danger"}},{"type":"Feature","geometry":{"type":"Point","coordinates":[-3.184658,55.943874]},"properties":{"location":"rider.mile.lime","rgb-string":"#ff0000","marker-color":"#ff0000","marker-symbol":"danger"}},{"type":"Feature","geometry":{"type":"Point","coordinates":[-3.184803,55.943173]},"properties":{"location":"brings.remedy.latter","rgb-string":"#ff0000","marker-color":"#ff0000","marker-symbol":"danger"}},{"type":"Feature","geometry":{"type":"Point","coordinates":[-3.185573,55.942877]},"properties":{"location":"dent.shins.cycle","rgb-string":"#ff4000","marker-color":"#ff4000","marker-symbol":"danger"}},{"type":"Feature","geometry":{"type":"Point","coordinates":[-3.186248,55.942796]},"properties":{"location":"under.retire.bump","rgb-string":"#ffc000","marker-color":"#ffc000","marker-symbol":"danger"}},{"type":"Feature","geometry":{"type":"Point","coordinates":[-3.18697,55.942688]},"properties":{"location":"strut.river.surely","rgb-string":"#ffc000","marker-color":"#ffc000","marker-symbol":"danger"}},{"type":"Feature","geometry":{"type":"Point","coordinates":[-3.186777,55.944575]},"properties":{"location":"artist.gets.react","rgb-string":"#ff8000","marker-color":"#ff8000","marker-symbol":"danger"}},{"type":"Feature","geometry":{"type":"Point","coordinates":[-3.185814,55.94603]},"properties":{"location":"renew.slows.basket","rgb-string":"#ff8000","marker-color":"#ff8000","marker-symbol":"danger"}},{"type":"Feature","geometry":{"type":"Point","coordinates":[-3.188319,55.945518]},"properties":{"location":"skills.less.herb","rgb-string":"#ff0000","marker-color":"#ff0000","marker-symbol":"danger"}},{"type":"Feature","geometry":{"type":"Point","coordinates":[-3.188463,55.945761]},"properties":{"location":"bend.tubes.chops","rgb-string":"#ff8000","marker-color":"#ff8000","marker-symbol":"danger"}},{"type":"Feature","geometry":{"type":"Point","coordinates":[-3.18856,55.946057]},"properties":{"location":"boost.radar.stress","rgb-string":"#ff4000","marker-color":"#ff4000","marker-symbol":"danger"}},{"type":"Feature","geometry":{"type":"Point","coordinates":[-3.188897,55.945707]},"properties":{"location":"stops.else.chats","rgb-string":"#ff0000","marker-color":"#ff0000","marker-symbol":"danger"}},{"type":"Feature","geometry":{"type":"Point","coordinates":[-3.188801,55.945437]},"properties":{"location":"shady.soft.phones","rgb-string":"#c0ff00","marker-color":"#c0ff00","marker-symbol":"lighthouse"}},{"type":"Feature","geometry":{"type":"Point","coordinates":[-3.189186,55.945087]},"properties":{"location":"number.exist.rate","rgb-string":"#80ff00","marker-color":"#80ff00","marker-symbol":"lighthouse"}},{"type":"Feature","geometry":{"type":"Point","coordinates":[-3.18986,55.945491]},"properties":{"location":"turkey.limit.ramp","rgb-string":"#ff4000","marker-color":"#ff4000","marker-symbol":"danger"}},{"type":"Feature","geometry":{"type":"Point","coordinates":[-3.190438,55.945383]},"properties":{"location":"jump.crop.fits","rgb-string":"#ffc000","marker-color":"#ffc000","marker-symbol":"danger"}},{"type":"Feature","geometry":{"type":"Point","coordinates":[-3.191016,55.945248]},"properties":{"location":"maple.limit.hotels","rgb-string":"#ffc000","marker-color":"#ffc000","marker-symbol":"danger"}},{"type":"Feature","geometry":{"type":"Point","coordinates":[-3.191016,55.944979]},"properties":{"location":"shapes.sheep.nature","rgb-string":"#ffc000","marker-color":"#ffc000","marker-symbol":"danger"}},{"type":"Feature","geometry":{"type":"Point","coordinates":[-3.191113,55.94417]},"properties":{"location":"hills.giant.crate","rgb-string":"#00ff00","marker-color":"#00ff00","marker-symbol":"lighthouse"}},{"type":"Feature","geometry":{"type":"Point","coordinates":[-3.190438,55.943982]},"properties":{"location":"pump.wheels.hulk","rgb-string":"#40ff00","marker-color":"#40ff00","marker-symbol":"lighthouse"}},{"type":"Feature","geometry":{"type":"Point","coordinates":[-3.190294,55.943712]},"properties":{"location":"sculpture.shot.melon","rgb-string":"#40ff00","marker-color":"#40ff00","marker-symbol":"lighthouse"}},{"type":"Feature","geometry":{"type":"Point","coordinates":[-3.189619,55.94382]},"properties":{"location":"burn.spot.across","rgb-string":"#40ff00","marker-color":"#40ff00","marker-symbol":"lighthouse"}},{"type":"Feature","geometry":{"type":"Point","coordinates":[-3.189234,55.943012]},"properties":{"location":"region.passes.pencil","rgb-string":"#40ff00","marker-color":"#40ff00","marker-symbol":"lighthouse"}},{"type":"Feature","geometry":{"type":"Point","coordinates":[-3.191161,55.942742]},"properties":{"location":"along.spill.limp","rgb-string":"#00ff00","marker-color":"#00ff00","marker-symbol":"lighthouse"}},{"type":"Feature","geometry":{"type":"Point","coordinates":[-3.191161,55.943362]},"properties":{"location":"meal.feed.large","rgb-string":"#00ff00","marker-color":"#00ff00","marker-symbol":"lighthouse"}},{"type":"Feature","geometry":{"type":"LineString","coordinates":[[-3.1878,55.9444],[-3.1876072,55.9441702],[-3.1877098,55.9438883],[-3.1878598,55.9436285],[-3.1878598,55.9439285],[-3.1878077,55.9442239],[-3.1878598,55.9445194],[-3.1875598,55.9445194],[-3.1872643,55.9444673],[-3.1871143,55.9442075],[-3.1870117,55.9439255],[-3.1867298,55.9440282],[-3.1864344,55.9440802],[-3.1861389,55.9441323],[-3.1862889,55.9443921],[-3.1859935,55.9444442],[-3.185698,55.9444963],[-3.1854026,55.9445484],[-3.1851207,55.944651],[-3.1848388,55.9447536],[-3.1846888,55.9450135],[-3.1845388,55.9452733],[-3.1845388,55.9449733],[-3.1845909,55.9446778],[-3.1845909,55.9443778],[-3.184643,55.9440824],[-3.184643,55.9437824],[-3.1846951,55.9434869],[-3.1847977,55.943205],[-3.1850796,55.9431024],[-3.1853394,55.9429524],[-3.1856213,55.9428498],[-3.1859167,55.9427977],[-3.1862167,55.9427977],[-3.1865122,55.9427456],[-3.1868076,55.9426935],[-3.1868076,55.9429935],[-3.1868076,55.9432935],[-3.1868076,55.9435935],[-3.1868076,55.9438935],[-3.1865122,55.9439456],[-3.1862167,55.9439977],[-3.1863667,55.9442575],[-3.1860713,55.9443096],[-3.1857759,55.9443617],[-3.1860713,55.9444138],[-3.1863011,55.9446066],[-3.1866011,55.9446066],[-3.1864511,55.9448665],[-3.1863011,55.9451263],[-3.1861511,55.9453861],[-3.1860011,55.9456459],[-3.1858511,55.9459057],[-3.1861466,55.9458536],[-3.186442,55.9458015],[-3.1867374,55.9457494],[-3.1870329,55.9456973],[-3.1873283,55.9456452],[-3.1876238,55.9455931],[-3.1879192,55.945541],[-3.1882192,55.945541],[-3.188449,55.9457339],[-3.1885516,55.9460158],[-3.1887814,55.9458229],[-3.1887814,55.9455229],[-3.1889743,55.9452931],[-3.1892041,55.9451003],[-3.1894639,55.9452503],[-3.1897237,55.9454003],[-3.1900237,55.9454003],[-3.1903237,55.9454003],[-3.1906191,55.9453482],[-3.1909146,55.9452961],[-3.1910172,55.9450142],[-3.1910693,55.9447187],[-3.1910693,55.9444187],[-3.1911214,55.9441233],[-3.1908259,55.9440712],[-3.1905305,55.9440191],[-3.1903377,55.9437893],[-3.1900377,55.9437893],[-3.1897377,55.9437893],[-3.1895877,55.9435295],[-3.1894377,55.9432697],[-3.1892448,55.9430399],[-3.1895403,55.9429878],[-3.1898357,55.9429357],[-3.1901312,55.9428836],[-3.1904266,55.9428315],[-3.190722,55.9427794],[-3.1910175,55.9427273],[-3.1910696,55.9430227],[-3.1911722,55.9433047],[-3.1908903,55.9434073],[-3.1906084,55.9435099],[-3.1903265,55.9436125],[-3.1900446,55.9437151],[-3.1897626,55.9438177],[-3.1894807,55.9439203],[-3.1891988,55.9440229],[-3.1889169,55.9441255],[-3.1886215,55.9441776],[-3.1883396,55.9442802],[-3.1880441,55.9443323]]},"properties":{}}]}