{"type":"FeatureCollection","features":[{"type":"Feature","geometry":{"type":"Point","coordinates":[-3.187645,55.944143]},"properties":{"location":"bound.ends.matter","rgb-string":"#80ff00","marker-color":"#80ff00","marker-symbol":"lighthouse"}},{"type":"Feature","geometry":{"type":"Point","coordinates":[-3.188271,55.944063]},"properties":{"location":"rush.crown.link","rgb-string":"#00ff00","marker-color":"#00ff00","marker-symbol":"lighthouse"}},{"type":"Feature","geometry":{"type":"Point","coordinates":[-3.187982,55.943497]},"properties":{"location":"scare.cubs.resort","rgb-string":"#00ff00","marker-color":"#00ff00","marker-symbol":"lighthouse"}},{"type":"Feature","geometry":{"type":"Point","coordinates":[-3.188704,55.943389]},"properties":{"location":"system.speak.guard","rgb-string":"#00ff00","marker-color":"#00ff00","marker-symbol":"lighthouse"}},{"type":"Feature","geometry":{"type":"Point","coordinates":[-3.188608,55.943119]},"properties":{"location":"groups.ideas.script","rgb-string":"#40ff00","marker-color":"#40ff00","marker-symbol":"lighthouse"}},{"type":"Feature","geometry":{"type":"Point","coordinates":[-3.189234,55.943012]},"properties":{"location":"region.passes.pencil","rgb-string":"#80ff00","marker-color":"#80ff00","marker-symbol":"lighthouse"}},{"type":"Feature","geometry":{"type":"Point","coordinates":[-3.189379,55.943281]},"properties":{"location":"rents.cone.stove","rgb-string":"#40ff00","marker-color":"#40ff00","marker-symbol":"lighthouse"}},{"type":"Feature","geometry":{"type":"Point","coordinates":[-3.189619,55.94382]},"properties":{"location":"burn.spot.across","rgb-string":"#000000","marker-color":"#000000","marker-symbol":"cross"}},{"type":"Feature","geometry":{"type":"Point","coordinates":[-3.189812,55.94409]},"properties":{"location":"cliff.asleep.wedge","rgb-string":"#40ff00","marker-color":"#40ff00","marker-symbol":"lighthouse"}},{"type":"Feature","geometry":{"type":"Point","coordinates":[-3.190294,55.943712]},"properties":{"location":"sculpture.shot.melon","rgb-string":"#000000","marker-color":"#000000","marker-symbol":"cross"}},{"type":"Feature","geometry":{"type":"Point","coordinates":[-3.189908,55.942904]},"properties":{"location":"second.launch.miles","rgb-string":"#40ff00","marker-color":"#40ff00","marker-symbol":"lighthouse"}},{"type":"Feature","geometry":{"type":"Point","coordinates":[-3.189764,55.942661]},"properties":{"location":"hooked.shine.third","rgb-string":"#00ff00","marker-color":"#00ff00","marker-symbol":"lighthouse"}},{"type":"Feature","geometry":{"type":"Point","coordinates":[-3.191161,55.943362]},"properties":{"location":"meal.feed.large","rgb-string":"#40ff00","marker-color":"#40ff00","marker-symbol":"lighthouse"}},{"type":"Feature","geometry":{"type":"Point","coordinates":[-3.191113,55.94417]},"properties":{"location":"hills.giant.crate","rgb-string":"#00ff00","marker-color":"#00ff00","marker-symbol":"lighthouse"}},{"type":"Feature","geometry":{"type":"Point","coordinates":[-3.191065,55.944709]},"properties":{"location":"estate.gave.votes","rgb-string":"#80ff00","marker-color":"#80ff00","marker-symbol":"lighthouse"}},{"type":"Feature","geometry":{"type":"Point","coordinates":[-3.191016,55.944979]},"properties":{"location":"shapes.sheep.nature","rgb-string":"#ff8000","marker-color":"#ff8000","marker-symbol":"danger"}},{"type":"Feature","geometry":{"type":"Point","coordinates":[-3.18986,55.945491]},"properties":{"location":"turkey.limit.ramp","rgb-string":"#ffc000","marker-color":"#ffc000","marker-symbol":"danger"}},{"type":"Feature","geometry":{"type":"Point","coordinates":[-3.189957,55.94603]},"properties":{"location":"love.behind.orchestra","rgb-string":"#ff0000","marker-color":"#ff0000","marker-symbol":"danger"}},{"type":"Feature","geometry":{"type":"Point","coordinates":[-3.189379,55.945949]},"properties":{"location":"coherent.saints.stuck","rgb-string":"#ff4000","marker-color":"#ff4000","marker-symbol":"danger"}},{"type":"Feature","geometry":{"type":"Point","coordinates":[-3.188897,55.945707]},"properties":{"location":"stops.else.chats","rgb-string":"#ff4000","marker-color":"#ff4000","marker-symbol":"danger"}},{"type":"Feature","geometry":{"type":"Point","coordinates":[-3.187259,55.945653]},"properties":{"location":"diner.leaves.mutual","rgb-string":"#ff8000","marker-color":"#ff8000","marker-symbol":"danger"}},{"type":"Feature","geometry":{"type":"Point","coordinates":[-3.188945,55.943928]},"properties":{"location":"noted.friday.jams","rgb-string":"#40ff00","marker-color":"#40ff00","marker-symbol":"lighthouse"}},{"type":"Feature","geometry":{"type":"Point","coordinates":[-3.18697,55.942688]},"properties":{"location":"strut.river.surely","rgb-string":"#ffc000","marker-color":"#ffc000","marker-symbol":"danger"}},{"type":"Feature","geometry":{"type":"Point","coordinates":[-3.185621,55.943065]},"properties":{"location":"toned.deflection.bland","rgb-string":"#ffc000","marker-color":"#ffc000","marker-symbol":"danger"}},{"type":"Feature","geometry":{"type":"Point","coordinates":[-3.185573,55.942877]},"properties":{"location":"dent.shins.cycle","rgb-string":"#000000","marker-color":"#000000","marker-symbol":"cross"}},{"type":"Feature","geometry":{"type":"Point","coordinates":[-3.185814,55.943551]},"properties":{"location":"record.sofa.sock","rgb-string":"#ff8000","marker-color":"#ff8000","marker-symbol":"danger"}},{"type":"Feature","geometry":{"type":"Point","coordinates":[-3.186007,55.943901]},"properties":{"location":"teams.mild.played","rgb-string":"#ff8000","marker-color":"#ff8000","marker-symbol":"danger"}},{"type":"Feature","geometry":{"type":"Point","coordinates":[-3.186103,55.944251]},"properties":{"location":"organs.shape.fantastic","rgb-string":"#000000","marker-color":"#000000","marker-symbol":"cross"}},{"type":"Feature","geometry":{"type":"Point","coordinates":[-3.186392,55.944656]},"properties":{"location":"rated.fired.crowds","rgb-string":"#ffc000","marker-color":"#ffc000","marker-symbol":"danger"}},{"type":"Feature","geometry":{"type":"Point","coordinates":[-3.186537,55.944063]},"properties":{"location":"lime.learns.front","rgb-string":"#ff4000","marker-color":"#ff4000","marker-symbol":"danger"}},{"type":"Feature","geometry":{"type":"Point","coordinates":[-3.185525,55.943982]},"properties":{"location":"manliness.poem.cliff","rgb-string":"#ff8000","marker-color":"#ff8000","marker-symbol":"danger"}},{"type":"Feature","geometry":{"type":"Point","coordinates":[-3.184899,55.944736]},"properties":{"location":"slide.leads.stores","rgb-string":"#ffc000","marker-color":"#ffc000","marker-symbol":"danger"}},{"type":"Feature","geometry":{"type":"Point","coordinates":[-3.185332,55.946138]},"properties":{"location":"prime.rent.silk","rgb-string":"#ff0000","marker-color":"#ff0000","marker-symbol":"danger"}},{"type":"Feature","geometry":{"type":"LineString","coordinates":[[-3.1878,55.9444],[-3.18765,55.9441402],[-3.1879454,55.9440881],[-3.1882454,55.9440881],[-3.1881428,55.9438062],[-3.1879928,55.9435464],[-3.1882883,55.9434943],[-3.1885837,55.9434422],[-3.1885837,55.9431422],[-3.1888792,55.9430901],[-3.1891746,55.943038],[-3.1893674,55.9432678],[-3.18947,55.9435497],[-3.18962,55.9438095],[-3.18977,55.9440693],[-3.1900299,55.9439193],[-3.1902597,55.9437265],[-3.1901571,55.9434446],[-3.1900071,55.9431848],[-3.1899045,55.9429029],[-3.1897545,55.9426431],[-3.1900364,55.9427457],[-3.1902962,55.9428957],[-3.190556,55.9430457],[-3.1908158,55.9431957],[-3.1910756,55.9433457],[-3.1910756,55.9436457],[-3.1910756,55.9439457],[-3.1911277,55.9442411],[-3.1910756,55.9445366],[-3.1910235,55.944832],[-3.1907637,55.944982],[-3.1905039,55.945132],[-3.1902441,55.945282],[-3.1899843,55.945432],[-3.1899843,55.945732],[-3.1899843,55.946032],[-3.1896888,55.9459799],[-3.1893934,55.9459278],[-3.1891115,55.9458252],[-3.1888517,55.9456752],[-3.1885517,55.9456752],[-3.1882517,55.9456752],[-3.1879517,55.9456752],[-3.1876517,55.9456752],[-3.1873517,55.9456752],[-3.1876336,55.9455726],[-3.187929,55.9455205],[-3.1882245,55.9454684],[-3.1883271,55.9451865],[-3.1884771,55.9449267],[-3.1885797,55.9446448],[-3.1887297,55.944385],[-3.1888323,55.9441031],[-3.1889823,55.9438433],[-3.1887225,55.9436933],[-3.1884627,55.9435433],[-3.1882029,55.9433933],[-3.1879431,55.9432433],[-3.1876832,55.9430933],[-3.1874234,55.9429433],[-3.1871636,55.9427933],[-3.1869038,55.9426433],[-3.1866219,55.9427459],[-3.18634,55.9428485],[-3.1860581,55.9429511],[-3.1857762,55.9430537],[-3.1855464,55.9428609],[-3.185649,55.9431428],[-3.1857516,55.9434247],[-3.1859016,55.9436845],[-3.1860516,55.9439443],[-3.1861037,55.9442397],[-3.1862537,55.9444995],[-3.1864465,55.9447294],[-3.186742,55.9447814],[-3.1864601,55.9448841],[-3.1866529,55.9451139],[-3.186371,55.9452165],[-3.1864231,55.944921],[-3.1864752,55.9446256],[-3.1867706,55.9446777],[-3.1870661,55.9446256],[-3.1873615,55.9445735],[-3.1872115,55.9443137],[-3.1870615,55.9440539],[-3.1869115,55.9437941],[-3.1866817,55.9439869],[-3.1863817,55.9439869],[-3.1860817,55.9439869],[-3.1857817,55.9439869],[-3.1854817,55.9439869],[-3.1852888,55.9442167],[-3.185096,55.9444465],[-3.184946,55.9447063],[-3.1850486,55.9449882],[-3.1851007,55.9452837],[-3.1852033,55.9455656],[-3.1852554,55.945861],[-3.185358,55.9461429],[-3.1855878,55.9459501],[-3.1858176,55.9457573],[-3.1860775,55.9456073],[-3.1863073,55.9454144],[-3.1865671,55.9452644],[-3.1867599,55.9454943],[-3.1869527,55.9457241],[-3.1871456,55.9459539],[-3.1872482,55.945672],[-3.1875436,55.9456199],[-3.1878391,55.9455678],[-3.1881345,55.9455157],[-3.1880319,55.9452338],[-3.1879293,55.9449519],[-3.1878772,55.9446564]]},"properties":{}}]}