{"type":"FeatureCollection","features":[{"type":"Feature","geometry":{"type":"Point","coordinates":[-3.187885,55.944709]},"properties":{"location":"hurt.green.filer","rgb-string":"#c0ff00","marker-color":"#c0ff00","marker-symbol":"lighthouse"}},{"type":"Feature","geometry":{"type":"Point","coordinates":[-3.1875,55.943874]},"properties":{"location":"begins.spider.drips","rgb-string":"#80ff00","marker-color":"#80ff00","marker-symbol":"lighthouse"}},{"type":"Feature","geometry":{"type":"Point","coordinates":[-3.187018,55.943982]},"properties":{"location":"renew.ears.tend","rgb-string":"#c0ff00","marker-color":"#c0ff00","marker-symbol":"lighthouse"}},{"type":"Feature","geometry":{"type":"Point","coordinates":[-3.187211,55.943335]},"properties":{"location":"scale.chair.kinds","rgb-string":"#ffc000","marker-color":"#ffc000","marker-symbol":"danger"}},{"type":"Feature","geometry":{"type":"Point","coordinates":[-3.186007,55.943901]},"properties":{"location":"teams.mild.played","rgb-string":"#ff8000","marker-color":"#ff8000","marker-symbol":"danger"}},{"type":"Feature","geometry":{"type":"Point","coordinates":[-3.185525,55.943982]},"properties":{"location":"manliness.poem.cliff","rgb-string":"#ffc000","marker-color":"#ffc000","marker-symbol":"danger"}},{"type":"Feature","geometry":{"type":"Point","coordinates":[-3.184947,55.943443]},"properties":{"location":"sentences.sings.modern","rgb-string":"#ff8000","marker-color":"#ff8000","marker-symbol":"danger"}},{"type":"Feature","geometry":{"type":"Point","coordinates":[-3.184803,55.943173]},"properties":{"location":"brings.remedy.latter","rgb-string":"#000000","marker-color":"#000000","marker-symbol":"cross"}},{"type":"Feature","geometry":{"type":"Point","coordinates":[-3.184754,55.943012]},"properties":{"location":"courier.assume.bill","rgb-string":"#ffc000","marker-color":"#ffc000","marker-symbol":"danger"}},{"type":"Feature","geometry":{"type":"Point","coordinates":[-3.184465,55.944952]},"properties":{"location":"sports.topic.clocks","rgb-string":"#ffc000","marker-color":"#ffc000","marker-symbol":"danger"}},{"type":"Feature","geometry":{"type":"Point","coordinates":[-3.185043,55.945868]},"properties":{"location":"rider.aura.bulb","rgb-string":"#ffc000","marker-color":"#ffc000","marker-symbol":"danger"}},{"type":"Feature","geometry":{"type":"Point","coordinates":[-3.186777,55.944575]},"properties":{"location":"artist.gets.react","rgb-string":"#000000","marker-color":"#000000","marker-symbol":"cross"}},{"type":"Feature","geometry":{"type":"Point","coordinates":[-3.18856,55.946057]},"properties":{"location":"boost.radar.stress","rgb-string":"#ffc000","marker-color":"#ffc000","marker-symbol":"danger"}},{"type":"Feature","geometry":{"type":"Point","coordinates":[-3.188897,55.945707]},"properties":{"location":"stops.else.chats","rgb-string":"#000000","marker-color":"#000000","marker-symbol":"cross"}},{"type":"Feature","geometry":{"type":"Point","coordinates":[-3.188801,55.945437]},"properties":{"location":"shady.soft.phones","rgb-string":"#ffc000","marker-color":"#ffc000","marker-symbol":"danger"}},{"type":"Feature","geometry":{"type":"Point","coordinates":[-3.189186,55.945087]},"properties":{"location":"number.exist.rate","rgb-string":"#ffc000","marker-color":"#ffc000","marker-symbol":"danger"}},{"type":"Feature","geometry":{"type":"Point","coordinates":[-3.189379,55.945949]},"properties":{"location":"coherent.saints.stuck","rgb-string":"#000000","marker-color":"#000000","marker-symbol":"cross"}},{"type":"Feature","geometry":{"type":"Point","coordinates":[-3.189957,55.94603]},"properties":{"location":"love.behind.orchestra","rgb-string":"#000000","marker-color":"#000000","marker-symbol":"cross"}},{"type":"Feature","geometry":{"type":"Point","coordinates":[-3.190438,55.945383]},"properties":{"location":"jump.crop.fits","rgb-string":"#000000","marker-color":"#000000","marker-symbol":"cross"}},{"type":"Feature","geometry":{"type":"Point","coordinates":[-3.191016,55.945248]},"properties":{"location":"maple.limit.hotels","rgb-string":"#000000","marker-color":"#000000","marker-symbol":"cross"}},{"type":"Feature","geometry":{"type":"Point","coordinates":[-3.191016,55.944979]},"properties":{"location":"shapes.sheep.nature","rgb-string":"#ffc000","marker-color":"#ffc000","marker-symbol":"danger"}},{"type":"Feature","geometry":{"type":"Point","coordinates":[-3.191065,55.94444]},"properties":{"location":"paying.crowd.weep","rgb-string":"#40ff00","marker-color":"#40ff00","marker-symbol":"lighthouse"}},{"type":"Feature","geometry":{"type":"Point","coordinates":[-3.191113,55.94417]},"properties":{"location":"hills.giant.crate","rgb-string":"#000000","marker-color":"#000000","marker-symbol":"cross"}},{"type":"Feature","geometry":{"type":"Point","coordinates":[-3.191113,55.943901]},"properties":{"location":"spicy.bunch.shady","rgb-string":"#00ff00","marker-color":"#00ff00","marker-symbol":"lighthouse"}},{"type":"Feature","geometry":{"type":"Point","coordinates":[-3.190438,55.943982]},"properties":{"location":"pump.wheels.hulk","rgb-string":"#40ff00","marker-color":"#40ff00","marker-symbol":"lighthouse"}},{"type":"Feature","geometry":{"type":"Point","coordinates":[-3.190727,55.943092]},"properties":{"location":"relate.chill.vest","rgb-string":"#40ff00","marker-color":"#40ff00","marker-symbol":"lighthouse"}},{"type":"Feature","geometry":{"type":"Point","coordinates":[-3.191161,55.943065]},"properties":{"location":"else.urban.museum","rgb-string":"#00ff00","marker-color":"#00ff00","marker-symbol":"lighthouse"}},{"type":"Feature","geometry":{"type":"Point","coordinates":[-3.189379,55.943281]},"properties":{"location":"rents.cone.stove","rgb-string":"#40ff00","marker-color":"#40ff00","marker-symbol":"lighthouse"}},{"type":"Feature","geometry":{"type":"Point","coordinates":[-3.188849,55.943658]},"properties":{"location":"labels.hotels.alert","rgb-string":"#40ff00","marker-color":"#40ff00","marker-symbol":"lighthouse"}},{"type":"Feature","geometry":{"type":"Point","coordinates":[-3.188704,55.943389]},"properties":{"location":"system.speak.guard","rgb-string":"#40ff00","marker-color":"#40ff00","marker-symbol":"lighthouse"}},{"type":"Feature","geometry":{"type":"Point","coordinates":[-3.188608,55.943119]},"properties":{"location":"groups.ideas.script","rgb-string":"#40ff00","marker-color":"#40ff00","marker-symbol":"lighthouse"}},{"type":"Feature","geometry":{"type":"Point","coordinates":[-3.188945,55.943928]},"properties":{"location":"noted.friday.jams","rgb-string":"#00ff00","marker-color":"#00ff00","marker-symbol":"lighthouse"}},{"type":"Feature","geometry":{"type":"Point","coordinates":[-3.191594,55.945195]},"properties":{"location":"hills.feels.tunes","rgb-string":"#ffc000","marker-color":"#ffc000","marker-symbol":"danger"}},{"type":"Feature","geometry":{"type":"LineString","coordinates":[[-3.1878,55.9444],[-3.1879026,55.9446819],[-3.1877526,55.9444221],[-3.1876026,55.9441623],[-3.1875,55.9438804],[-3.1872046,55.9439325],[-3.1872046,55.9436325],[-3.1872046,55.9433325],[-3.187102,55.9436144],[-3.1869993,55.9438963],[-3.1868493,55.9436365],[-3.1865674,55.9437391],[-3.1862855,55.9438417],[-3.1859901,55.9438938],[-3.1856946,55.9439459],[-3.1854348,55.9437959],[-3.185205,55.9436031],[-3.1849452,55.9434531],[-3.1847952,55.9431932],[-3.1847431,55.9428978],[-3.184691,55.9431932],[-3.1846389,55.9434887],[-3.1845868,55.9437841],[-3.1845347,55.9440796],[-3.1845347,55.9443796],[-3.1844827,55.944675],[-3.1844827,55.944975],[-3.1846327,55.9452348],[-3.1847827,55.9454946],[-3.1849755,55.9457244],[-3.1852353,55.9455744],[-3.1854951,55.9454244],[-3.1857549,55.9452744],[-3.1860147,55.9451244],[-3.1862445,55.9449316],[-3.1865043,55.9447816],[-3.1867342,55.9445888],[-3.1864387,55.9446409],[-3.1867206,55.9447435],[-3.1864387,55.9448461],[-3.1861568,55.9449487],[-3.1864387,55.9450513],[-3.1867206,55.9451539],[-3.1869135,55.9453837],[-3.1871063,55.9456135],[-3.1873882,55.9457161],[-3.1876701,55.9458187],[-3.1879655,55.9458708],[-3.1882475,55.9459734],[-3.1885429,55.9460255],[-3.1887727,55.9458327],[-3.1887727,55.9455327],[-3.1889655,55.9453029],[-3.1891954,55.94511],[-3.1892475,55.9454055],[-3.1892995,55.9457009],[-3.1894022,55.9459828],[-3.1897022,55.9459828],[-3.1899976,55.9460349],[-3.1901476,55.9457751],[-3.1903404,55.9455453],[-3.1906223,55.9454427],[-3.1908821,55.9452927],[-3.1909848,55.9450108],[-3.1910368,55.9447154],[-3.1910889,55.9444199],[-3.1910889,55.9441199],[-3.191141,55.9438245],[-3.1908456,55.9438766],[-3.1905637,55.9439792],[-3.1906158,55.9436837],[-3.1906679,55.9433883],[-3.19072,55.9430928],[-3.19102,55.9430928],[-3.1907245,55.9431449],[-3.1904291,55.943197],[-3.1901336,55.9432491],[-3.1898336,55.9432491],[-3.1895336,55.9432491],[-3.1892738,55.9433991],[-3.189014,55.9435491],[-3.1887542,55.9433991],[-3.1886042,55.9431393],[-3.1887068,55.9434212],[-3.1888568,55.943681],[-3.1889594,55.9439629],[-3.1892413,55.9440655],[-3.1895011,55.9442155],[-3.1897831,55.9443182],[-3.1900429,55.9444682],[-3.1903248,55.9445708],[-3.1905846,55.9447208],[-3.1908665,55.9448234],[-3.1911263,55.9449734],[-3.1914082,55.945076],[-3.191668,55.945226],[-3.1913726,55.9451739],[-3.1910771,55.9451218],[-3.1907817,55.9450697],[-3.1904862,55.9450176],[-3.1901908,55.9449655],[-3.1898954,55.9449134],[-3.1895999,55.9448613],[-3.1893045,55.9448092],[-3.189009,55.9447571],[-3.1887271,55.9446545],[-3.1884317,55.9446024],[-3.1881498,55.9444998],[-3.1878679,55.9443972]]},"properties":{}}]}