{"type":"FeatureCollection","features":[{"type":"Feature","geometry":{"type":"Point","coordinates":[-3.187645,55.944143]},"properties":{"location":"bound.ends.matter","rgb-string":"#000000","marker-color":"#000000","marker-symbol":"cross"}},{"type":"Feature","geometry":{"type":"Point","coordinates":[-3.188126,55.943793]},"properties":{"location":"cubs.trucks.help","rgb-string":"#40ff00","marker-color":"#40ff00","marker-symbol":"lighthouse"}},{"type":"Feature","geometry":{"type":"Point","coordinates":[-3.187982,55.943497]},"properties":{"location":"scare.cubs.resort","rgb-string":"#00ff00","marker-color":"#00ff00","marker-symbol":"lighthouse"}},{"type":"Feature","geometry":{"type":"Point","coordinates":[-3.188608,55.943119]},"properties":{"location":"groups.ideas.script","rgb-string":"#80ff00","marker-color":"#80ff00","marker-symbol":"lighthouse"}},{"type":"Feature","geometry":{"type":"Point","coordinates":[-3.188945,55.943928]},"properties":{"location":"noted.friday.jams","rgb-string":"#00ff00","marker-color":"#00ff00","marker-symbol":"lighthouse"}},{"type":"Feature","geometry":{"type":"Point","coordinates":[-3.188415,55.944305]},"properties":{"location":"trades.rare.cable","rgb-string":"#000000","marker-color":"#000000","marker-symbol":"cross"}},{"type":"Feature","geometry":{"type":"Point","coordinates":[-3.188801,55.945437]},"properties":{"location":"shady.soft.phones","rgb-string":"#ff4000","marker-color":"#ff4000","marker-symbol":"danger"}},{"type":"Feature","geometry":{"type":"Point","coordinates":[-3.188463,55.945761]},"properties":{"location":"bend.tubes.chops","rgb-string":"#ffc000","marker-color":"#ffc000","marker-symbol":"danger"}},{"type":"Feature","geometry":{"type":"Point","coordinates":[-3.18933,55.945653]},"properties":{"location":"museum.spicy.horns","rgb-string":"#ff0000","marker-color":"#ff0000","marker-symbol":"danger"}},{"type":"Feature","geometry":{"type":"Point","coordinates":[-3.189957,55.94603]},"properties":{"location":"love.behind.orchestra","rgb-string":"#ffc000","marker-color":"#ffc000","marker-symbol":"danger"}},{"type":"Feature","geometry":{"type":"Point","coordinates":[-3.191161,55.945976]},"properties":{"location":"simple.rust.audio","rgb-string":"#ff0000","marker-color":"#ff0000","marker-symbol":"danger"}},{"type":"Feature","geometry":{"type":"Point","coordinates":[-3.191016,55.944979]},"properties":{"location":"shapes.sheep.nature","rgb-string":"#c0ff00","marker-color":"#c0ff00","marker-symbol":"lighthouse"}},{"type":"Feature","geometry":{"type":"Point","coordinates":[-3.191065,55.94444]},"properties":{"location":"paying.crowd.weep","rgb-string":"#000000","marker-color":"#000000","marker-symbol":"cross"}},{"type":"Feature","geometry":{"type":"Point","coordinates":[-3.191113,55.94417]},"properties":{"location":"hills.giant.crate","rgb-string":"#000000","marker-color":"#000000","marker-symbol":"cross"}},{"type":"Feature","geometry":{"type":"Point","coordinates":[-3.191113,55.943631]},"properties":{"location":"loaf.cheer.slave","rgb-string":"#00ff00","marker-color":"#00ff00","marker-symbol":"lighthouse"}},{"type":"Feature","geometry":{"type":"Point","coordinates":[-3.190438,55.943982]},"properties":{"location":"pump.wheels.hulk","rgb-string":"#40ff00","marker-color":"#40ff00","marker-symbol":"lighthouse"}},{"type":"Feature","geometry":{"type":"Point","coordinates":[-3.190197,55.943443]},"properties":{"location":"arts.dish.scarcely","rgb-string":"#40ff00","marker-color":"#40ff00","marker-symbol":"lighthouse"}},{"type":"Feature","geometry":{"type":"Point","coordinates":[-3.189908,55.942904]},"properties":{"location":"second.launch.miles","rgb-string":"#40ff00","marker-color":"#40ff00","marker-symbol":"lighthouse"}},{"type":"Feature","geometry":{"type":"Point","coordinates":[-3.187018,55.942877]},"properties":{"location":"valve.elaborate.fortunate","rgb-string":"#c0ff00","marker-color":"#c0ff00","marker-symbol":"lighthouse"}},{"type":"Feature","geometry":{"type":"Point","coordinates":[-3.186344,55.942958]},"properties":{"location":"hers.banks.goat","rgb-string":"#ff8000","marker-color":"#ff8000","marker-symbol":"danger"}},{"type":"Feature","geometry":{"type":"Point","coordinates":[-3.185621,55.943065]},"properties":{"location":"toned.deflection.bland","rgb-string":"#ff8000","marker-color":"#ff8000","marker-symbol":"danger"}},{"type":"Feature","geometry":{"type":"Point","coordinates":[-3.185573,55.942877]},"properties":{"location":"dent.shins.cycle","rgb-string":"#ff4000","marker-color":"#ff4000","marker-symbol":"danger"}},{"type":"Feature","geometry":{"type":"Point","coordinates":[-3.185814,55.943551]},"properties":{"location":"record.sofa.sock","rgb-string":"#ffc000","marker-color":"#ffc000","marker-symbol":"danger"}},{"type":"Feature","geometry":{"type":"Point","coordinates":[-3.186007,55.943901]},"properties":{"location":"teams.mild.played","rgb-string":"#c0ff00","marker-color":"#c0ff00","marker-symbol":"lighthouse"}},{"type":"Feature","geometry":{"type":"Point","coordinates":[-3.186537,55.944063]},"properties":{"location":"lime.learns.front","rgb-string":"#c0ff00","marker-color":"#c0ff00","marker-symbol":"lighthouse"}},{"type":"Feature","geometry":{"type":"Point","coordinates":[-3.187018,55.943982]},"properties":{"location":"renew.ears.tend","rgb-string":"#c0ff00","marker-color":"#c0ff00","marker-symbol":"lighthouse"}},{"type":"Feature","geometry":{"type":"Point","coordinates":[-3.186537,55.944925]},"properties":{"location":"laws.merit.bleak","rgb-string":"#ffc000","marker-color":"#ffc000","marker-symbol":"danger"}},{"type":"Feature","geometry":{"type":"Point","coordinates":[-3.186729,55.945168]},"properties":{"location":"dragon.bottle.crisp","rgb-string":"#ffc000","marker-color":"#ffc000","marker-symbol":"danger"}},{"type":"Feature","geometry":{"type":"Point","coordinates":[-3.186729,55.945653]},"properties":{"location":"hidden.handle.softly","rgb-string":"#ff0000","marker-color":"#ff0000","marker-symbol":"danger"}},{"type":"Feature","geometry":{"type":"Point","coordinates":[-3.187404,55.945949]},"properties":{"location":"slips.mass.baking","rgb-string":"#ffc000","marker-color":"#ffc000","marker-symbol":"danger"}},{"type":"Feature","geometry":{"type":"Point","coordinates":[-3.185621,55.945761]},"properties":{"location":"shed.desire.muddy","rgb-string":"#ff4000","marker-color":"#ff4000","marker-symbol":"danger"}},{"type":"Feature","geometry":{"type":"Point","coordinates":[-3.185043,55.945868]},"properties":{"location":"rider.aura.bulb","rgb-string":"#ffc000","marker-color":"#ffc000","marker-symbol":"danger"}},{"type":"Feature","geometry":{"type":"Point","coordinates":[-3.18514,55.943685]},"properties":{"location":"hello.love.keys","rgb-string":"#ffc000","marker-color":"#ffc000","marker-symbol":"danger"}},{"type":"Feature","geometry":{"type":"LineString","coordinates":[[-3.1878,55.9444],[-3.18765,55.9441402],[-3.1878798,55.9439474],[-3.1881396,55.9437974],[-3.1879896,55.9435375],[-3.1882494,55.9433875],[-3.1884792,55.9431947],[-3.1886292,55.9434545],[-3.1887792,55.9437143],[-3.1889721,55.9439441],[-3.1887123,55.9440941],[-3.1884825,55.944287],[-3.1885851,55.9445689],[-3.1886372,55.9448643],[-3.1887398,55.9451462],[-3.1887919,55.9454417],[-3.188562,55.9456345],[-3.188862,55.9456345],[-3.189162,55.9456345],[-3.1894219,55.9457845],[-3.1897038,55.9458871],[-3.1899636,55.9460371],[-3.1902636,55.9460371],[-3.1905636,55.9460371],[-3.190859,55.945985],[-3.191159,55.945985],[-3.1911069,55.9456896],[-3.1910548,55.9453941],[-3.1910027,55.9450987],[-3.1910027,55.9447987],[-3.1910548,55.9445033],[-3.1911069,55.9442078],[-3.1911069,55.9439078],[-3.1911069,55.9436078],[-3.1908471,55.9437578],[-3.1905873,55.9439078],[-3.1903945,55.943678],[-3.1902016,55.9434482],[-3.1900516,55.9431884],[-3.1899016,55.9429286],[-3.1896016,55.9429286],[-3.1893016,55.9429286],[-3.1890016,55.9429286],[-3.1892971,55.9428765],[-3.1891471,55.9431363],[-3.1888516,55.9430842],[-3.1885562,55.9430321],[-3.1882607,55.94298],[-3.1879607,55.94298],[-3.1876653,55.9429279],[-3.1873653,55.9429279],[-3.1870699,55.9428758],[-3.1867744,55.9429279],[-3.1864744,55.9429279],[-3.186179,55.94298],[-3.1858835,55.9430321],[-3.1855881,55.9430842],[-3.1855881,55.9427842],[-3.1856907,55.9430661],[-3.1857428,55.9433615],[-3.1858454,55.9436434],[-3.1859954,55.9439033],[-3.1862773,55.9440059],[-3.1865727,55.944058],[-3.1868682,55.9440059],[-3.187061,55.943776],[-3.1869584,55.944058],[-3.1868084,55.9437981],[-3.186513,55.9438502],[-3.1862175,55.9439023],[-3.1863201,55.9441842],[-3.1860247,55.9442363],[-3.1862175,55.9444662],[-3.1864104,55.944696],[-3.1865604,55.9449558],[-3.1867532,55.9451856],[-3.1867532,55.9454856],[-3.187013,55.9456356],[-3.1872428,55.9458284],[-3.1874726,55.9460213],[-3.1871772,55.9459692],[-3.1868818,55.9459171],[-3.1865863,55.945865],[-3.1862909,55.9458129],[-3.1859909,55.9458129],[-3.1856954,55.9457608],[-3.1854,55.9458129],[-3.1851045,55.945865],[-3.1851045,55.945565],[-3.1851045,55.945265],[-3.1851045,55.944965],[-3.1851045,55.944665],[-3.1851045,55.944365],[-3.1851045,55.944065],[-3.1851045,55.943765],[-3.1854,55.9438171],[-3.1856954,55.9438692],[-3.1859909,55.9439213],[-3.1862863,55.9439734],[-3.1865682,55.944076],[-3.1862728,55.9441281],[-3.1859773,55.9441801],[-3.1862728,55.9442322],[-3.1859773,55.9442843],[-3.1862773,55.9442843],[-3.1859819,55.9443364],[-3.1862819,55.9443364],[-3.1859865,55.9443885],[-3.1862865,55.9443885],[-3.185991,55.9444406],[-3.1862208,55.9446335],[-3.1865163,55.9446856],[-3.1868117,55.9446335],[-3.1871072,55.9445814],[-3.1873891,55.9444788],[-3.1876845,55.9444267]]},"properties":{}}]}