{"type":"FeatureCollection","features":[{"type":"Feature","geometry":{"type":"Point","coordinates":[-3.188126,55.943793]},"properties":{"location":"cubs.trucks.help","rgb-string":"#00ff00","marker-color":"#00ff00","marker-symbol":"lighthouse"}},{"type":"Feature","geometry":{"type":"Point","coordinates":[-3.188849,55.943658]},"properties":{"location":"labels.hotels.alert","rgb-string":"#00ff00","marker-color":"#00ff00","marker-symbol":"lighthouse"}},{"type":"Feature","geometry":{"type":"Point","coordinates":[-3.188608,55.943119]},"properties":{"location":"groups.ideas.script","rgb-string":"#40ff00","marker-color":"#40ff00","marker-symbol":"lighthouse"}},{"type":"Feature","geometry":{"type":"Point","coordinates":[-3.189379,55.943281]},"properties":{"location":"rents.cone.stove","rgb-string":"#80ff00","marker-color":"#80ff00","marker-symbol":"lighthouse"}},{"type":"Feature","geometry":{"type":"Point","coordinates":[-3.189764,55.942661]},"properties":{"location":"hooked.shine.third","rgb-string":"#40ff00","marker-color":"#40ff00","marker-symbol":"lighthouse"}},{"type":"Feature","geometry":{"type":"Point","coordinates":[-3.190053,55.943173]},"properties":{"location":"shows.fries.lamp","rgb-string":"#40ff00","marker-color":"#40ff00","marker-symbol":"lighthouse"}},{"type":"Feature","geometry":{"type":"Point","coordinates":[-3.190438,55.943982]},"properties":{"location":"pump.wheels.hulk","rgb-string":"#40ff00","marker-color":"#40ff00","marker-symbol":"lighthouse"}},{"type":"Feature","geometry":{"type":"Point","coordinates":[-3.191113,55.943901]},"properties":{"location":"spicy.bunch.shady","rgb-string":"#00ff00","marker-color":"#00ff00","marker-symbol":"lighthouse"}},{"type":"Feature","geometry":{"type":"Point","coordinates":[-3.191113,55.943631]},"properties":{"location":"loaf.cheer.slave","rgb-string":"#00ff00","marker-color":"#00ff00","marker-symbol":"lighthouse"}},{"type":"Feature","geometry":{"type":"Point","coordinates":[-3.191161,55.943065]},"properties":{"location":"else.urban.museum","rgb-string":"#00ff00","marker-color":"#00ff00","marker-symbol":"lighthouse"}},{"type":"Feature","geometry":{"type":"Point","coordinates":[-3.191161,55.942742]},"properties":{"location":"along.spill.limp","rgb-string":"#00ff00","marker-color":"#00ff00","marker-symbol":"lighthouse"}},{"type":"Feature","geometry":{"type":"Point","coordinates":[-3.191065,55.944709]},"properties":{"location":"estate.gave.votes","rgb-string":"#80ff00","marker-color":"#80ff00","marker-symbol":"lighthouse"}},{"type":"Feature","geometry":{"type":"Point","coordinates":[-3.191016,55.944979]},"properties":{"location":"shapes.sheep.nature","rgb-string":"#c0ff00","marker-color":"#c0ff00","marker-symbol":"lighthouse"}},{"type":"Feature","geometry":{"type":"Point","coordinates":[-3.191016,55.945248]},"properties":{"location":"maple.limit.hotels","rgb-string":"#ff0000","marker-color":"#ff0000","marker-symbol":"danger"}},{"type":"Feature","geometry":{"type":"Point","coordinates":[-3.190438,55.945383]},"properties":{"location":"jump.crop.fits","rgb-string":"#ff8000","marker-color":"#ff8000","marker-symbol":"danger"}},{"type":"Feature","geometry":{"type":"Point","coordinates":[-3.189957,55.94603]},"properties":{"location":"love.behind.orchestra","rgb-string":"#ffc000","marker-color":"#ffc000","marker-symbol":"danger"}},{"type":"Feature","geometry":{"type":"Point","coordinates":[-3.189379,55.945949]},"properties":{"location":"coherent.saints.stuck","rgb-string":"#ff8000","marker-color":"#ff8000","marker-symbol":"danger"}},{"type":"Feature","geometry":{"type":"Point","coordinates":[-3.18933,55.945653]},"properties":{"location":"museum.spicy.horns","rgb-string":"#ff4000","marker-color":"#ff4000","marker-symbol":"danger"}},{"type":"Feature","geometry":{"type":"Point","coordinates":[-3.188801,55.945437]},"properties":{"location":"shady.soft.phones","rgb-string":"#ffc000","marker-color":"#ffc000","marker-symbol":"danger"}},{"type":"Feature","geometry":{"type":"Point","coordinates":[-3.188463,55.945761]},"properties":{"location":"bend.tubes.chops","rgb-string":"#ff8000","marker-color":"#ff8000","marker-symbol":"danger"}},{"type":"Feature","geometry":{"type":"Point","coordinates":[-3.188319,55.945518]},"properties":{"location":"skills.less.herb","rgb-string":"#ff8000","marker-color":"#ff8000","marker-symbol":"danger"}},{"type":"Feature","geometry":{"type":"Point","coordinates":[-3.18856,55.946057]},"properties":{"location":"boost.radar.stress","rgb-string":"#ff0000","marker-color":"#ff0000","marker-symbol":"danger"}},{"type":"Feature","geometry":{"type":"Point","coordinates":[-3.187355,55.943604]},"properties":{"location":"shut.stands.media","rgb-string":"#80ff00","marker-color":"#80ff00","marker-symbol":"lighthouse"}},{"type":"Feature","geometry":{"type":"Point","coordinates":[-3.187211,55.943335]},"properties":{"location":"scale.chair.kinds","rgb-string":"#ff8000","marker-color":"#ff8000","marker-symbol":"danger"}},{"type":"Feature","geometry":{"type":"Point","coordinates":[-3.18567,55.944359]},"properties":{"location":"atoms.vanish.foods","rgb-string":"#000000","marker-color":"#000000","marker-symbol":"cross"}},{"type":"Feature","geometry":{"type":"Point","coordinates":[-3.186537,55.944925]},"properties":{"location":"laws.merit.bleak","rgb-string":"#ff4000","marker-color":"#ff4000","marker-symbol":"danger"}},{"type":"Feature","geometry":{"type":"Point","coordinates":[-3.186777,55.944575]},"properties":{"location":"artist.gets.react","rgb-string":"#ff8000","marker-color":"#ff8000","marker-symbol":"danger"}},{"type":"Feature","geometry":{"type":"Point","coordinates":[-3.185814,55.94603]},"properties":{"location":"renew.slows.basket","rgb-string":"#ff4000","marker-color":"#ff4000","marker-symbol":"danger"}},{"type":"Feature","geometry":{"type":"Point","coordinates":[-3.185332,55.946138]},"properties":{"location":"prime.rent.silk","rgb-string":"#ff8000","marker-color":"#ff8000","marker-symbol":"danger"}},{"type":"Feature","geometry":{"type":"Point","coordinates":[-3.184513,55.945302]},"properties":{"location":"settle.title.united","rgb-string":"#ff4000","marker-color":"#ff4000","marker-symbol":"danger"}},{"type":"Feature","geometry":{"type":"Point","coordinates":[-3.185621,55.943065]},"properties":{"location":"toned.deflection.bland","rgb-string":"#ff4000","marker-color":"#ff4000","marker-symbol":"danger"}},{"type":"Feature","geometry":{"type":"Point","coordinates":[-3.186248,55.942796]},"properties":{"location":"under.retire.bump","rgb-string":"#ffc000","marker-color":"#ffc000","marker-symbol":"danger"}},{"type":"Feature","geometry":{"type":"Point","coordinates":[-3.191883,55.946003]},"properties":{"location":"stone.undulation.poems","rgb-string":"#000000","marker-color":"#000000","marker-symbol":"cross"}},{"type":"Feature","geometry":{"type":"LineString","coordinates":[[-3.1878,55.9444],[-3.18795,55.9441402],[-3.1881,55.9438804],[-3.1883819,55.9437778],[-3.1886774,55.9437257],[-3.1886253,55.9434302],[-3.1886253,55.9431302],[-3.1889207,55.9431823],[-3.1892161,55.9432344],[-3.189409,55.9430046],[-3.1897044,55.9429525],[-3.1897565,55.9426571],[-3.1899065,55.9429169],[-3.1900565,55.9431767],[-3.1902065,55.9434365],[-3.1903091,55.9437184],[-3.1904591,55.9439782],[-3.1907546,55.9439261],[-3.1910546,55.9439261],[-3.1911067,55.9436307],[-3.1911067,55.9433307],[-3.1911588,55.9430352],[-3.1911588,55.9427352],[-3.1910088,55.942995],[-3.1910088,55.943295],[-3.1910088,55.943595],[-3.1910088,55.943895],[-3.1910088,55.944195],[-3.1910608,55.9444905],[-3.1910608,55.9447905],[-3.1910088,55.9450859],[-3.1910088,55.9453859],[-3.1907088,55.9453859],[-3.1904088,55.9453859],[-3.1902588,55.9456457],[-3.1900659,55.9458756],[-3.1897705,55.9459276],[-3.1894705,55.9459276],[-3.1893205,55.9456678],[-3.1890386,55.9455652],[-3.1887788,55.9454152],[-3.1885859,55.945645],[-3.188304,55.9455424],[-3.188454,55.9458022],[-3.1885566,55.9460842],[-3.1882968,55.9459342],[-3.188037,55.9457842],[-3.1877772,55.9456342],[-3.1880726,55.9455821],[-3.1883681,55.94553],[-3.1881083,55.94538],[-3.1879583,55.9451202],[-3.1878083,55.9448604],[-3.1876583,55.9446005],[-3.1875083,55.9443407],[-3.1874562,55.9440453],[-3.1874041,55.9437499],[-3.1872541,55.94349],[-3.1871515,55.943772],[-3.1870489,55.9440539],[-3.1868989,55.9437941],[-3.1866034,55.9438461],[-3.186308,55.9438982],[-3.1860782,55.9440911],[-3.1858184,55.9442411],[-3.1860482,55.9444339],[-3.186278,55.9446268],[-3.1864708,55.9448566],[-3.1867006,55.9446637],[-3.1864187,55.9447663],[-3.1862687,55.9450261],[-3.1861661,55.945308],[-3.1860161,55.9455679],[-3.1859135,55.9458498],[-3.1857635,55.9461096],[-3.1854635,55.9461096],[-3.1852337,55.9459167],[-3.1850039,55.9457239],[-3.1847741,55.9455311],[-3.1845443,55.9453382],[-3.1846469,55.9450563],[-3.1847969,55.9447965],[-3.1848995,55.9445146],[-3.1850495,55.9442548],[-3.1851995,55.943995],[-3.1853021,55.9437131],[-3.1854521,55.9434533],[-3.1855547,55.9431714],[-3.1858145,55.9430214],[-3.1860743,55.9428714],[-3.1863341,55.9430214],[-3.1860387,55.9430735],[-3.1862985,55.9432235],[-3.1864485,55.9434833],[-3.1867304,55.9435859],[-3.1870123,55.9436885],[-3.1872942,55.9437911],[-3.187554,55.9439411],[-3.1878359,55.9440437],[-3.1880957,55.9441937],[-3.1883555,55.9443437],[-3.1886374,55.9444463],[-3.1888973,55.9445963],[-3.1891792,55.9446989],[-3.189439,55.9448489],[-3.1897209,55.9449515],[-3.1899807,55.9451015],[-3.1902626,55.9452041],[-3.1905224,55.9453541],[-3.1908043,55.9454567],[-3.1910641,55.9456067],[-3.1913239,55.9457567],[-3.1916058,55.9458593],[-3.1918656,55.9460093],[-3.1915837,55.9459067],[-3.1913018,55.9458041],[-3.1910199,55.9457015],[-3.190738,55.9455989],[-3.1904561,55.9454963],[-3.1901742,55.9453937],[-3.1898923,55.9452911],[-3.1896104,55.9451885],[-3.1893285,55.9450859],[-3.1890466,55.9449833],[-3.1887647,55.9448807],[-3.1885048,55.9447307],[-3.1882229,55.9446281],[-3.1879631,55.9444781]]},"properties":{}}]}