{"type":"FeatureCollection","features":[{"type":"Feature","geometry":{"type":"Point","coordinates":[-3.187645,55.944143]},"properties":{"location":"bound.ends.matter","rgb-string":"#80ff00","marker-color":"#80ff00","marker-symbol":"lighthouse"}},{"type":"Feature","geometry":{"type":"Point","coordinates":[-3.187982,55.943497]},"properties":{"location":"scare.cubs.resort","rgb-string":"#000000","marker-color":"#000000","marker-symbol":"cross"}},{"type":"Feature","geometry":{"type":"Point","coordinates":[-3.187789,55.944386]},"properties":{"location":"thank.salsa.brain","rgb-string":"#80ff00","marker-color":"#80ff00","marker-symbol":"lighthouse"}},{"type":"Feature","geometry":{"type":"Point","coordinates":[-3.187885,55.944709]},"properties":{"location":"hurt.green.filer","rgb-string":"#c0ff00","marker-color":"#c0ff00","marker-symbol":"lighthouse"}},{"type":"Feature","geometry":{"type":"Point","coordinates":[-3.187307,55.944494]},"properties":{"location":"only.fairly.rift","rgb-string":"#ffc000","marker-color":"#ffc000","marker-symbol":"danger"}},{"type":"Feature","geometry":{"type":"Point","coordinates":[-3.186537,55.944925]},"properties":{"location":"laws.merit.bleak","rgb-string":"#ff4000","marker-color":"#ff4000","marker-symbol":"danger"}},{"type":"Feature","geometry":{"type":"Point","coordinates":[-3.18567,55.944359]},"properties":{"location":"atoms.vanish.foods","rgb-string":"#ff4000","marker-color":"#ff4000","marker-symbol":"danger"}},{"type":"Feature","geometry":{"type":"Point","coordinates":[-3.186007,55.943901]},"properties":{"location":"teams.mild.played","rgb-string":"#ffc000","marker-color":"#ffc000","marker-symbol":"danger"}},{"type":"Feature","geometry":{"type":"Point","coordinates":[-3.18514,55.943685]},"properties":{"location":"hello.love.keys","rgb-string":"#ffc000","marker-color":"#ffc000","marker-symbol":"danger"}},{"type":"Feature","geometry":{"type":"Point","coordinates":[-3.184658,55.943874]},"properties":{"location":"rider.mile.lime","rgb-string":"#ff8000","marker-color":"#ff8000","marker-symbol":"danger"}},{"type":"Feature","geometry":{"type":"Point","coordinates":[-3.184754,55.943012]},"properties":{"location":"courier.assume.bill","rgb-string":"#ff4000","marker-color":"#ff4000","marker-symbol":"danger"}},{"type":"Feature","geometry":{"type":"Point","coordinates":[-3.185573,55.942877]},"properties":{"location":"dent.shins.cycle","rgb-string":"#ff0000","marker-color":"#ff0000","marker-symbol":"danger"}},{"type":"Feature","geometry":{"type":"Point","coordinates":[-3.18697,55.942688]},"properties":{"location":"strut.river.surely","rgb-string":"#000000","marker-color":"#000000","marker-symbol":"cross"}},{"type":"Feature","geometry":{"type":"Point","coordinates":[-3.188849,55.943658]},"properties":{"location":"labels.hotels.alert","rgb-string":"#00ff00","marker-color":"#00ff00","marker-symbol":"lighthouse"}},{"type":"Feature","geometry":{"type":"Point","coordinates":[-3.188945,55.943928]},"properties":{"location":"noted.friday.jams","rgb-string":"#40ff00","marker-color":"#40ff00","marker-symbol":"lighthouse"}},{"type":"Feature","geometry":{"type":"Point","coordinates":[-3.190053,55.943173]},"properties":{"location":"shows.fries.lamp","rgb-string":"#40ff00","marker-color":"#40ff00","marker-symbol":"lighthouse"}},{"type":"Feature","geometry":{"type":"Point","coordinates":[-3.190438,55.943982]},"properties":{"location":"pump.wheels.hulk","rgb-string":"#40ff00","marker-color":"#40ff00","marker-symbol":"lighthouse"}},{"type":"Feature","geometry":{"type":"Point","coordinates":[-3.191113,55.943901]},"properties":{"location":"spicy.bunch.shady","rgb-string":"#40ff00","marker-color":"#40ff00","marker-symbol":"lighthouse"}},{"type":"Feature","geometry":{"type":"Point","coordinates":[-3.191161,55.943362]},"properties":{"location":"meal.feed.large","rgb-string":"#40ff00","marker-color":"#40ff00","marker-symbol":"lighthouse"}},{"type":"Feature","geometry":{"type":"Point","coordinates":[-3.191161,55.943065]},"properties":{"location":"else.urban.museum","rgb-string":"#00ff00","marker-color":"#00ff00","marker-symbol":"lighthouse"}},{"type":"Feature","geometry":{"type":"Point","coordinates":[-3.191161,55.942742]},"properties":{"location":"along.spill.limp","rgb-string":"#00ff00","marker-color":"#00ff00","marker-symbol":"lighthouse"}},{"type":"Feature","geometry":{"type":"Point","coordinates":[-3.192221,55.945114]},"properties":{"location":"useful.hike.trades","rgb-string":"#ffc000","marker-color":"#ffc000","marker-symbol":"danger"}},{"type":"Feature","geometry":{"type":"Point","coordinates":[-3.191257,55.945599]},"properties":{"location":"skins.engage.best","rgb-string":"#ff8000","marker-color":"#ff8000","marker-symbol":"danger"}},{"type":"Feature","geometry":{"type":"Point","coordinates":[-3.191161,55.945976]},"properties":{"location":"simple.rust.audio","rgb-string":"#ff4000","marker-color":"#ff4000","marker-symbol":"danger"}},{"type":"Feature","geometry":{"type":"Point","coordinates":[-3.18986,55.945491]},"properties":{"location":"turkey.limit.ramp","rgb-string":"#ff8000","marker-color":"#ff8000","marker-symbol":"danger"}},{"type":"Feature","geometry":{"type":"Point","coordinates":[-3.18933,55.945653]},"properties":{"location":"museum.spicy.horns","rgb-string":"#000000","marker-color":"#000000","marker-symbol":"cross"}},{"type":"Feature","geometry":{"type":"Point","coordinates":[-3.188704,55.945168]},"properties":{"location":"rooms.lamp.teach","rgb-string":"#ffc000","marker-color":"#ffc000","marker-symbol":"danger"}},{"type":"Feature","geometry":{"type":"Point","coordinates":[-3.188463,55.945761]},"properties":{"location":"bend.tubes.chops","rgb-string":"#ff4000","marker-color":"#ff4000","marker-symbol":"danger"}},{"type":"Feature","geometry":{"type":"Point","coordinates":[-3.18856,55.946057]},"properties":{"location":"boost.radar.stress","rgb-string":"#ffc000","marker-color":"#ffc000","marker-symbol":"danger"}},{"type":"Feature","geometry":{"type":"Point","coordinates":[-3.187259,55.945653]},"properties":{"location":"diner.leaves.mutual","rgb-string":"#ffc000","marker-color":"#ffc000","marker-symbol":"danger"}},{"type":"Feature","geometry":{"type":"Point","coordinates":[-3.185814,55.94603]},"properties":{"location":"renew.slows.basket","rgb-string":"#ff8000","marker-color":"#ff8000","marker-symbol":"danger"}},{"type":"Feature","geometry":{"type":"Point","coordinates":[-3.185043,55.945868]},"properties":{"location":"rider.aura.bulb","rgb-string":"#ff0000","marker-color":"#ff0000","marker-symbol":"danger"}},{"type":"Feature","geometry":{"type":"Point","coordinates":[-3.184465,55.944952]},"properties":{"location":"sports.topic.clocks","rgb-string":"#ff8000","marker-color":"#ff8000","marker-symbol":"danger"}},{"type":"Feature","geometry":{"type":"LineString","coordinates":[[-3.1878,55.9444],[-3.1876072,55.9441702],[-3.1877098,55.9438883],[-3.1878598,55.9436285],[-3.1878598,55.9439285],[-3.1878077,55.9442239],[-3.1878598,55.9445194],[-3.1875598,55.9445194],[-3.1872643,55.9444673],[-3.1870045,55.9446173],[-3.1867447,55.9447673],[-3.1864628,55.9448699],[-3.186203,55.9447199],[-3.1859432,55.9445699],[-3.1857134,55.944377],[-3.1858634,55.9441172],[-3.1860134,55.9438574],[-3.1857179,55.9438053],[-3.1854225,55.9437532],[-3.185127,55.9437011],[-3.1848451,55.9438037],[-3.184793,55.9435083],[-3.184793,55.9432083],[-3.184741,55.9429129],[-3.185041,55.9429129],[-3.185341,55.9429129],[-3.1856364,55.9428608],[-3.1859318,55.9428087],[-3.1862273,55.9427566],[-3.1865227,55.9427045],[-3.1868227,55.9427045],[-3.1871046,55.9428071],[-3.1873644,55.9429571],[-3.1876463,55.9430597],[-3.1879062,55.9432097],[-3.1881881,55.9433123],[-3.1884479,55.9434623],[-3.1887077,55.9436123],[-3.1889005,55.9438421],[-3.1891603,55.9436921],[-3.1894201,55.9435421],[-3.1896799,55.9433921],[-3.1899397,55.9432421],[-3.1900897,55.9435019],[-3.1902826,55.9437317],[-3.1904326,55.9439915],[-3.190728,55.9439394],[-3.1910235,55.9438873],[-3.1910756,55.9435919],[-3.1911782,55.94331],[-3.1911782,55.94301],[-3.1911782,55.94271],[-3.1912808,55.9429919],[-3.1913834,55.9432738],[-3.191486,55.9435557],[-3.191636,55.9438155],[-3.1917386,55.9440974],[-3.1918886,55.9443572],[-3.1919912,55.9446392],[-3.1921412,55.944899],[-3.1922438,55.9451809],[-3.1919619,55.9452835],[-3.19168,55.9453861],[-3.1914202,55.9455361],[-3.1912702,55.9457959],[-3.1911202,55.9460557],[-3.1908383,55.9459531],[-3.1905564,55.9458505],[-3.1902966,55.9457005],[-3.1900367,55.9455505],[-3.1897413,55.9456026],[-3.1894459,55.9456547],[-3.1891861,55.9455047],[-3.1889262,55.9453547],[-3.1886964,55.9451618],[-3.1885938,55.9454437],[-3.1884912,55.9457257],[-3.1885433,55.9460211],[-3.1882614,55.9459185],[-3.187966,55.9458664],[-3.1876841,55.9457638],[-3.1873886,55.9457117],[-3.1870932,55.9457638],[-3.1867977,55.9458159],[-3.1865023,55.945868],[-3.1862068,55.9459201],[-3.1859249,55.9460227],[-3.1856295,55.9459706],[-3.1853341,55.9459185],[-3.1850386,55.9458664],[-3.1848886,55.9456066],[-3.1847386,55.9453468],[-3.1845458,55.945117],[-3.1848412,55.9450649],[-3.1851367,55.9450128],[-3.1854321,55.9449607],[-3.1857275,55.9449086],[-3.186023,55.9448565],[-3.1863184,55.9448044],[-3.1866003,55.9447018],[-3.1868958,55.9446497],[-3.1871777,55.9445471],[-3.1874731,55.944495],[-3.187755,55.9443924]]},"properties":{}}]}