{"type":"FeatureCollection","features":[{"type":"Feature","geometry":{"type":"Point","coordinates":[-3.187885,55.944709]},"properties":{"location":"hurt.green.filer","rgb-string":"#c0ff00","marker-color":"#c0ff00","marker-symbol":"lighthouse"}},{"type":"Feature","geometry":{"type":"Point","coordinates":[-3.18803,55.944979]},"properties":{"location":"agents.mile.crib","rgb-string":"#c0ff00","marker-color":"#c0ff00","marker-symbol":"lighthouse"}},{"type":"Feature","geometry":{"type":"Point","coordinates":[-3.188319,55.945518]},"properties":{"location":"skills.less.herb","rgb-string":"#ff4000","marker-color":"#ff4000","marker-symbol":"danger"}},{"type":"Feature","geometry":{"type":"Point","coordinates":[-3.188801,55.945437]},"properties":{"location":"shady.soft.phones","rgb-string":"#ffc000","marker-color":"#ffc000","marker-symbol":"danger"}},{"type":"Feature","geometry":{"type":"Point","coordinates":[-3.18986,55.945491]},"properties":{"location":"turkey.limit.ramp","rgb-string":"#ff8000","marker-color":"#ff8000","marker-symbol":"danger"}},{"type":"Feature","geometry":{"type":"Point","coordinates":[-3.190438,55.945383]},"properties":{"location":"jump.crop.fits","rgb-string":"#ff0000","marker-color":"#ff0000","marker-symbol":"danger"}},{"type":"Feature","geometry":{"type":"Point","coordinates":[-3.191016,55.945248]},"properties":{"location":"maple.limit.hotels","rgb-string":"#ffc000","marker-color":"#ffc000","marker-symbol":"danger"}},{"type":"Feature","geometry":{"type":"Point","coordinates":[-3.191257,55.945599]},"properties":{"location":"skins.engage.best","rgb-string":"#ff0000","marker-color":"#ff0000","marker-symbol":"danger"}},{"type":"Feature","geometry":{"type":"Point","coordinates":[-3.191161,55.945976]},"properties":{"location":"simple.rust.audio","rgb-string":"#ff0000","marker-color":"#ff0000","marker-symbol":"danger"}},{"type":"Feature","geometry":{"type":"Point","coordinates":[-3.191065,55.944709]},"properties":{"location":"estate.gave.votes","rgb-string":"#80ff00","marker-color":"#80ff00","marker-symbol":"lighthouse"}},{"type":"Feature","geometry":{"type":"Point","coordinates":[-3.191065,55.94444]},"properties":{"location":"paying.crowd.weep","rgb-string":"#80ff00","marker-color":"#80ff00","marker-symbol":"lighthouse"}},{"type":"Feature","geometry":{"type":"Point","coordinates":[-3.191113,55.943631]},"properties":{"location":"loaf.cheer.slave","rgb-string":"#00ff00","marker-color":"#00ff00","marker-symbol":"lighthouse"}},{"type":"Feature","geometry":{"type":"Point","coordinates":[-3.190438,55.943982]},"properties":{"location":"pump.wheels.hulk","rgb-string":"#40ff00","marker-color":"#40ff00","marker-symbol":"lighthouse"}},{"type":"Feature","geometry":{"type":"Point","coordinates":[-3.190197,55.943443]},"properties":{"location":"arts.dish.scarcely","rgb-string":"#40ff00","marker-color":"#40ff00","marker-symbol":"lighthouse"}},{"type":"Feature","geometry":{"type":"Point","coordinates":[-3.189908,55.942904]},"properties":{"location":"second.launch.miles","rgb-string":"#40ff00","marker-color":"#40ff00","marker-symbol":"lighthouse"}},{"type":"Feature","geometry":{"type":"Point","coordinates":[-3.190583,55.942823]},"properties":{"location":"tonic.bliss.cove","rgb-string":"#40ff00","marker-color":"#40ff00","marker-symbol":"lighthouse"}},{"type":"Feature","geometry":{"type":"Point","coordinates":[-3.188704,55.943389]},"properties":{"location":"system.speak.guard","rgb-string":"#40ff00","marker-color":"#40ff00","marker-symbol":"lighthouse"}},{"type":"Feature","geometry":{"type":"Point","coordinates":[-3.189138,55.944197]},"properties":{"location":"spoon.invest.every","rgb-string":"#40ff00","marker-color":"#40ff00","marker-symbol":"lighthouse"}},{"type":"Feature","geometry":{"type":"Point","coordinates":[-3.187211,55.943335]},"properties":{"location":"scale.chair.kinds","rgb-string":"#c0ff00","marker-color":"#c0ff00","marker-symbol":"lighthouse"}},{"type":"Feature","geometry":{"type":"Point","coordinates":[-3.186344,55.942958]},"properties":{"location":"hers.banks.goat","rgb-string":"#ff4000","marker-color":"#ff4000","marker-symbol":"danger"}},{"type":"Feature","geometry":{"type":"Point","coordinates":[-3.185525,55.943982]},"properties":{"location":"manliness.poem.cliff","rgb-string":"#ff8000","marker-color":"#ff8000","marker-symbol":"danger"}},{"type":"Feature","geometry":{"type":"Point","coordinates":[-3.18514,55.943685]},"properties":{"location":"hello.love.keys","rgb-string":"#ff8000","marker-color":"#ff8000","marker-symbol":"danger"}},{"type":"Feature","geometry":{"type":"Point","coordinates":[-3.184658,55.943874]},"properties":{"location":"rider.mile.lime","rgb-string":"#ff0000","marker-color":"#ff0000","marker-symbol":"danger"}},{"type":"Feature","geometry":{"type":"Point","coordinates":[-3.184754,55.943012]},"properties":{"location":"courier.assume.bill","rgb-string":"#ff0000","marker-color":"#ff0000","marker-symbol":"danger"}},{"type":"Feature","geometry":{"type":"Point","coordinates":[-3.185236,55.944575]},"properties":{"location":"acid.chair.butter","rgb-string":"#ff0000","marker-color":"#ff0000","marker-symbol":"danger"}},{"type":"Feature","geometry":{"type":"Point","coordinates":[-3.186103,55.944251]},"properties":{"location":"organs.shape.fantastic","rgb-string":"#ff4000","marker-color":"#ff4000","marker-symbol":"danger"}},{"type":"Feature","geometry":{"type":"Point","coordinates":[-3.186392,55.944656]},"properties":{"location":"rated.fired.crowds","rgb-string":"#ff0000","marker-color":"#ff0000","marker-symbol":"danger"}},{"type":"Feature","geometry":{"type":"Point","coordinates":[-3.186729,55.945168]},"properties":{"location":"dragon.bottle.crisp","rgb-string":"#ffc000","marker-color":"#ffc000","marker-symbol":"danger"}},{"type":"Feature","geometry":{"type":"Point","coordinates":[-3.187404,55.945949]},"properties":{"location":"slips.mass.baking","rgb-string":"#ffc000","marker-color":"#ffc000","marker-symbol":"danger"}},{"type":"Feature","geometry":{"type":"Point","coordinates":[-3.185814,55.94603]},"properties":{"location":"renew.slows.basket","rgb-string":"#ff4000","marker-color":"#ff4000","marker-symbol":"danger"}},{"type":"Feature","geometry":{"type":"Point","coordinates":[-3.185332,55.946138]},"properties":{"location":"prime.rent.silk","rgb-string":"#ff8000","marker-color":"#ff8000","marker-symbol":"danger"}},{"type":"Feature","geometry":{"type":"Point","coordinates":[-3.184513,55.945302]},"properties":{"location":"settle.title.united","rgb-string":"#ffc000","marker-color":"#ffc000","marker-symbol":"danger"}},{"type":"Feature","geometry":{"type":"Point","coordinates":[-3.192221,55.945114]},"properties":{"location":"useful.hike.trades","rgb-string":"#ffc000","marker-color":"#ffc000","marker-symbol":"danger"}},{"type":"Feature","geometry":{"type":"LineString","coordinates":[[-3.1878,55.9444],[-3.1879026,55.9446819],[-3.1880052,55.9449638],[-3.1881552,55.9452236],[-3.1883052,55.9454834],[-3.1886007,55.9454313],[-3.1889007,55.9454313],[-3.1892007,55.9454313],[-3.1895007,55.9454313],[-3.1897961,55.9454834],[-3.1900915,55.9454313],[-3.190387,55.9453792],[-3.1906824,55.9453271],[-3.1909779,55.9452751],[-3.1911707,55.9455049],[-3.1911707,55.9458049],[-3.1911186,55.9455094],[-3.1911186,55.9452094],[-3.1910665,55.944914],[-3.1910665,55.944614],[-3.1910665,55.944314],[-3.1910665,55.944014],[-3.1911186,55.9437185],[-3.1908367,55.9438211],[-3.1905548,55.9439238],[-3.190362,55.9436939],[-3.190212,55.9434341],[-3.190062,55.9431743],[-3.189912,55.9429145],[-3.1902074,55.9428624],[-3.1905028,55.9428103],[-3.1902209,55.9429129],[-3.189939,55.9430155],[-3.1896571,55.9431181],[-3.1893752,55.9432208],[-3.1890798,55.9432728],[-3.1887979,55.9433755],[-3.1889005,55.9436574],[-3.1890031,55.9439393],[-3.1891531,55.9441991],[-3.1888712,55.9440965],[-3.1885893,55.9439939],[-3.1883294,55.9438439],[-3.1880475,55.9437413],[-3.1877877,55.9435913],[-3.1875058,55.9434887],[-3.187246,55.9433387],[-3.1869641,55.943236],[-3.1866822,55.9431334],[-3.1864224,55.9429834],[-3.186127,55.9430355],[-3.185977,55.9432953],[-3.185827,55.9435551],[-3.185677,55.943815],[-3.1854841,55.9440448],[-3.1852913,55.943815],[-3.1849958,55.943867],[-3.1846958,55.943867],[-3.1846958,55.943567],[-3.1847479,55.9432716],[-3.1847479,55.9429716],[-3.1848505,55.9432535],[-3.1849531,55.9435354],[-3.1850557,55.9438173],[-3.1851078,55.9441128],[-3.1852105,55.9443947],[-3.1855059,55.9443426],[-3.1858013,55.9442905],[-3.1860968,55.9442384],[-3.1861994,55.9439565],[-3.186302,55.9442384],[-3.1860065,55.9442905],[-3.1862364,55.9444833],[-3.1864292,55.9447131],[-3.1865792,55.9449729],[-3.186772,55.9452028],[-3.1869649,55.9454326],[-3.1871577,55.9456624],[-3.1873505,55.9458922],[-3.1870551,55.9459443],[-3.1867551,55.9459443],[-3.1864597,55.9459964],[-3.1861597,55.9459964],[-3.1858642,55.9460485],[-3.1855688,55.9461006],[-3.1852733,55.9461527],[-3.1850805,55.9459229],[-3.1848877,55.945693],[-3.1846948,55.9454632],[-3.184465,55.9452704],[-3.184765,55.9452704],[-3.185065,55.9452704],[-3.185365,55.9452704],[-3.185665,55.9452704],[-3.185965,55.9452704],[-3.186265,55.9452704],[-3.186565,55.9452704],[-3.186865,55.9452704],[-3.1870578,55.9455002],[-3.1872507,55.94573],[-3.1875461,55.9456779],[-3.1878416,55.9456258],[-3.188137,55.9455737],[-3.1884324,55.9455216],[-3.1887279,55.9454696],[-3.1890233,55.9454175],[-3.1893188,55.9453654],[-3.1896142,55.9453133],[-3.1899142,55.9453133],[-3.1902097,55.9452612],[-3.1905097,55.9452612],[-3.1908051,55.9452091],[-3.1911051,55.9452091],[-3.1914005,55.945157],[-3.1917005,55.945157],[-3.191996,55.9451049],[-3.192296,55.9451049],[-3.1920005,55.9450528],[-3.1917051,55.9450007],[-3.1914097,55.9449486],[-3.1911142,55.9448965],[-3.1908188,55.9448444],[-3.1905233,55.9447923],[-3.1902279,55.9447402],[-3.1899324,55.9446881],[-3.189637,55.944636],[-3.1893416,55.9445839],[-3.1890461,55.9445319],[-3.1887507,55.9444798],[-3.1884507,55.9444798],[-3.1881552,55.9444277],[-3.1878552,55.9444277]]},"properties":{}}]}