{"type":"FeatureCollection","features":[{"type":"Feature","geometry":{"type":"Point","coordinates":[-3.187885,55.944709]},"properties":{"location":"hurt.green.filer","rgb-string":"#c0ff00","marker-color":"#c0ff00","marker-symbol":"lighthouse"}},{"type":"Feature","geometry":{"type":"Point","coordinates":[-3.188415,55.944305]},"properties":{"location":"trades.rare.cable","rgb-string":"#40ff00","marker-color":"#40ff00","marker-symbol":"lighthouse"}},{"type":"Feature","geometry":{"type":"Point","coordinates":[-3.188945,55.943928]},"properties":{"location":"noted.friday.jams","rgb-string":"#40ff00","marker-color":"#40ff00","marker-symbol":"lighthouse"}},{"type":"Feature","geometry":{"type":"Point","coordinates":[-3.189523,55.943551]},"properties":{"location":"cars.attend.hotels","rgb-string":"#40ff00","marker-color":"#40ff00","marker-symbol":"lighthouse"}},{"type":"Feature","geometry":{"type":"Point","coordinates":[-3.190197,55.943443]},"properties":{"location":"arts.dish.scarcely","rgb-string":"#40ff00","marker-color":"#40ff00","marker-symbol":"lighthouse"}},{"type":"Feature","geometry":{"type":"Point","coordinates":[-3.190583,55.942823]},"properties":{"location":"tonic.bliss.cove","rgb-string":"#00ff00","marker-color":"#00ff00","marker-symbol":"lighthouse"}},{"type":"Feature","geometry":{"type":"Point","coordinates":[-3.191161,55.943065]},"properties":{"location":"else.urban.museum","rgb-string":"#00ff00","marker-color":"#00ff00","marker-symbol":"lighthouse"}},{"type":"Feature","geometry":{"type":"Point","coordinates":[-3.191113,55.943631]},"properties":{"location":"loaf.cheer.slave","rgb-string":"#00ff00","marker-color":"#00ff00","marker-symbol":"lighthouse"}},{"type":"Feature","geometry":{"type":"Point","coordinates":[-3.191113,55.943901]},"properties":{"location":"spicy.bunch.shady","rgb-string":"#40ff00","marker-color":"#40ff00","marker-symbol":"lighthouse"}},{"type":"Feature","geometry":{"type":"Point","coordinates":[-3.191113,55.94417]},"properties":{"location":"hills.giant.crate","rgb-string":"#40ff00","marker-color":"#40ff00","marker-symbol":"lighthouse"}},{"type":"Feature","geometry":{"type":"Point","coordinates":[-3.191065,55.944709]},"properties":{"location":"estate.gave.votes","rgb-string":"#40ff00","marker-color":"#40ff00","marker-symbol":"lighthouse"}},{"type":"Feature","geometry":{"type":"Point","coordinates":[-3.191016,55.945248]},"properties":{"location":"maple.limit.hotels","rgb-string":"#ff0000","marker-color":"#ff0000","marker-symbol":"danger"}},{"type":"Feature","geometry":{"type":"Point","coordinates":[-3.191161,55.945976]},"properties":{"location":"simple.rust.audio","rgb-string":"#000000","marker-color":"#000000","marker-symbol":"cross"}},{"type":"Feature","geometry":{"type":"Point","coordinates":[-3.191883,55.946003]},"properties":{"location":"stone.undulation.poems","rgb-string":"#ffc000","marker-color":"#ffc000","marker-symbol":"danger"}},{"type":"Feature","geometry":{"type":"Point","coordinates":[-3.192221,55.945114]},"properties":{"location":"useful.hike.trades","rgb-string":"#ff4000","marker-color":"#ff4000","marker-symbol":"danger"}},{"type":"Feature","geometry":{"type":"Point","coordinates":[-3.18986,55.945491]},"properties":{"location":"turkey.limit.ramp","rgb-string":"#ffc000","marker-color":"#ffc000","marker-symbol":"danger"}},{"type":"Feature","geometry":{"type":"Point","coordinates":[-3.189379,55.945949]},"properties":{"location":"coherent.saints.stuck","rgb-string":"#ffc000","marker-color":"#ffc000","marker-symbol":"danger"}},{"type":"Feature","geometry":{"type":"Point","coordinates":[-3.188897,55.945707]},"properties":{"location":"stops.else.chats","rgb-string":"#ff4000","marker-color":"#ff4000","marker-symbol":"danger"}},{"type":"Feature","geometry":{"type":"Point","coordinates":[-3.188319,55.945518]},"properties":{"location":"skills.less.herb","rgb-string":"#ff4000","marker-color":"#ff4000","marker-symbol":"danger"}},{"type":"Feature","geometry":{"type":"Point","coordinates":[-3.187018,55.943982]},"properties":{"location":"renew.ears.tend","rgb-string":"#c0ff00","marker-color":"#c0ff00","marker-symbol":"lighthouse"}},{"type":"Feature","geometry":{"type":"Point","coordinates":[-3.186103,55.944251]},"properties":{"location":"organs.shape.fantastic","rgb-string":"#ff4000","marker-color":"#ff4000","marker-symbol":"danger"}},{"type":"Feature","geometry":{"type":"Point","coordinates":[-3.18567,55.944359]},"properties":{"location":"atoms.vanish.foods","rgb-string":"#000000","marker-color":"#000000","marker-symbol":"cross"}},{"type":"Feature","geometry":{"type":"Point","coordinates":[-3.185236,55.944575]},"properties":{"location":"acid.chair.butter","rgb-string":"#ff4000","marker-color":"#ff4000","marker-symbol":"danger"}},{"type":"Feature","geometry":{"type":"Point","coordinates":[-3.185814,55.943551]},"properties":{"location":"record.sofa.sock","rgb-string":"#ffc000","marker-color":"#ffc000","marker-symbol":"danger"}},{"type":"Feature","geometry":{"type":"Point","coordinates":[-3.186248,55.942796]},"properties":{"location":"under.retire.bump","rgb-string":"#ff0000","marker-color":"#ff0000","marker-symbol":"danger"}},{"type":"Feature","geometry":{"type":"Point","coordinates":[-3.184803,55.943173]},"properties":{"location":"brings.remedy.latter","rgb-string":"#ff4000","marker-color":"#ff4000","marker-symbol":"danger"}},{"type":"Feature","geometry":{"type":"Point","coordinates":[-3.184754,55.943012]},"properties":{"location":"courier.assume.bill","rgb-string":"#ff8000","marker-color":"#ff8000","marker-symbol":"danger"}},{"type":"Feature","geometry":{"type":"Point","coordinates":[-3.186537,55.944925]},"properties":{"location":"laws.merit.bleak","rgb-string":"#ff8000","marker-color":"#ff8000","marker-symbol":"danger"}},{"type":"Feature","geometry":{"type":"Point","coordinates":[-3.185621,55.945761]},"properties":{"location":"shed.desire.muddy","rgb-string":"#000000","marker-color":"#000000","marker-symbol":"cross"}},{"type":"Feature","geometry":{"type":"Point","coordinates":[-3.185814,55.94603]},"properties":{"location":"renew.slows.basket","rgb-string":"#ffc000","marker-color":"#ffc000","marker-symbol":"danger"}},{"type":"Feature","geometry":{"type":"Point","coordinates":[-3.185332,55.946138]},"properties":{"location":"prime.rent.silk","rgb-string":"#ff4000","marker-color":"#ff4000","marker-symbol":"danger"}},{"type":"Feature","geometry":{"type":"Point","coordinates":[-3.187837,55.943227]},"properties":{"location":"gums.clock.modes","rgb-string":"#40ff00","marker-color":"#40ff00","marker-symbol":"lighthouse"}},{"type":"Feature","geometry":{"type":"Point","coordinates":[-3.189764,55.942661]},"properties":{"location":"hooked.shine.third","rgb-string":"#40ff00","marker-color":"#40ff00","marker-symbol":"lighthouse"}},{"type":"Feature","geometry":{"type":"LineString","coordinates":[[-3.1878,55.9444],[-3.1879026,55.9446819],[-3.1881324,55.9444891],[-3.1883922,55.9443391],[-3.188622,55.9441462],[-3.1888818,55.9439962],[-3.1891117,55.9438034],[-3.1893715,55.9436534],[-3.1896669,55.9436013],[-3.1899488,55.9434987],[-3.1902443,55.9434466],[-3.1903943,55.9431868],[-3.1905443,55.942927],[-3.1908397,55.9429791],[-3.1911351,55.9430312],[-3.1911351,55.9433312],[-3.1911351,55.9436312],[-3.1911351,55.9439312],[-3.1911351,55.9442312],[-3.1910831,55.9445266],[-3.1910831,55.9448266],[-3.191031,55.9451221],[-3.1910831,55.9454175],[-3.1911351,55.9457129],[-3.1911872,55.9460084],[-3.1914872,55.9460084],[-3.1917872,55.9460084],[-3.1919372,55.9457486],[-3.1920398,55.9454667],[-3.1921898,55.9452069],[-3.1918944,55.945259],[-3.191599,55.9453111],[-3.1913035,55.9453631],[-3.1910081,55.9454152],[-3.1907081,55.9454152],[-3.1904126,55.9454673],[-3.1901126,55.9454673],[-3.1898172,55.9455194],[-3.1895874,55.9457123],[-3.1893945,55.9459421],[-3.1891126,55.9458395],[-3.1888528,55.9456895],[-3.1885709,55.9455869],[-3.1882755,55.9455348],[-3.1885709,55.9454827],[-3.1882755,55.9454306],[-3.1881255,55.9451708],[-3.1879755,55.944911],[-3.1877457,55.9447181],[-3.1875957,55.9444583],[-3.1873659,55.9442655],[-3.187136,55.9440727],[-3.186986,55.9438128],[-3.1867262,55.9439628],[-3.1864308,55.9440149],[-3.186201,55.9442078],[-3.1859191,55.9443104],[-3.1856236,55.9443625],[-3.1853638,55.9445125],[-3.1854664,55.9442306],[-3.1856164,55.9439708],[-3.185719,55.9436889],[-3.185869,55.943429],[-3.186019,55.9431692],[-3.186169,55.9429094],[-3.1858736,55.9429615],[-3.1855781,55.9430136],[-3.1852827,55.9430657],[-3.1849873,55.9431178],[-3.1847054,55.9430152],[-3.1848982,55.943245],[-3.185091,55.9434748],[-3.1853208,55.9436677],[-3.1855137,55.9438975],[-3.1857435,55.9440903],[-3.1859363,55.9443201],[-3.1861661,55.944513],[-3.186359,55.9447428],[-3.1865518,55.9449726],[-3.186322,55.9451654],[-3.1860922,55.9453583],[-3.1858624,55.9455511],[-3.1856326,55.9457439],[-3.1857826,55.9460037],[-3.1855006,55.9461064],[-3.1856935,55.9458765],[-3.1858863,55.9456467],[-3.1860792,55.9454169],[-3.186272,55.9451871],[-3.1864648,55.9449573],[-3.1866577,55.9447275],[-3.1869531,55.9446754],[-3.1872486,55.9446233],[-3.1873512,55.9443414],[-3.1874538,55.9440595],[-3.1875564,55.9437776],[-3.1877064,55.9435178],[-3.187809,55.9432358],[-3.1880909,55.9431332],[-3.1883728,55.9430306],[-3.1885228,55.9432904],[-3.1887826,55.9431404],[-3.1890424,55.9429904],[-3.1893378,55.9429383],[-3.1896333,55.9428863],[-3.1899287,55.9428342],[-3.1897787,55.943094],[-3.1897787,55.942794],[-3.1895489,55.9429868],[-3.1893191,55.9431796],[-3.1890893,55.9433725],[-3.1888595,55.9435653],[-3.1886297,55.9437581],[-3.1883999,55.943951],[-3.18817,55.9441438],[-3.1879402,55.9443367]]},"properties":{}}]}