{"type":"FeatureCollection","features":[{"type":"Feature","geometry":{"type":"Point","coordinates":[-3.187645,55.944143]},"properties":{"location":"bound.ends.matter","rgb-string":"#40ff00","marker-color":"#40ff00","marker-symbol":"lighthouse"}},{"type":"Feature","geometry":{"type":"Point","coordinates":[-3.1875,55.943874]},"properties":{"location":"begins.spider.drips","rgb-string":"#80ff00","marker-color":"#80ff00","marker-symbol":"lighthouse"}},{"type":"Feature","geometry":{"type":"Point","coordinates":[-3.187018,55.943982]},"properties":{"location":"renew.ears.tend","rgb-string":"#80ff00","marker-color":"#80ff00","marker-symbol":"lighthouse"}},{"type":"Feature","geometry":{"type":"Point","coordinates":[-3.186103,55.944251]},"properties":{"location":"organs.shape.fantastic","rgb-string":"#ffc000","marker-color":"#ffc000","marker-symbol":"danger"}},{"type":"Feature","geometry":{"type":"Point","coordinates":[-3.185236,55.944575]},"properties":{"location":"acid.chair.butter","rgb-string":"#ff8000","marker-color":"#ff8000","marker-symbol":"danger"}},{"type":"Feature","geometry":{"type":"Point","coordinates":[-3.18514,55.943685]},"properties":{"location":"hello.love.keys","rgb-string":"#c0ff00","marker-color":"#c0ff00","marker-symbol":"lighthouse"}},{"type":"Feature","geometry":{"type":"Point","coordinates":[-3.184658,55.943874]},"properties":{"location":"rider.mile.lime","rgb-string":"#ff0000","marker-color":"#ff0000","marker-symbol":"danger"}},{"type":"Feature","geometry":{"type":"Point","coordinates":[-3.184465,55.944952]},"properties":{"location":"sports.topic.clocks","rgb-string":"#ff8000","marker-color":"#ff8000","marker-symbol":"danger"}},{"type":"Feature","geometry":{"type":"Point","coordinates":[-3.184513,55.945302]},"properties":{"location":"settle.title.united","rgb-string":"#ff0000","marker-color":"#ff0000","marker-symbol":"danger"}},{"type":"Feature","geometry":{"type":"Point","coordinates":[-3.185043,55.945868]},"properties":{"location":"rider.aura.bulb","rgb-string":"#ffc000","marker-color":"#ffc000","marker-symbol":"danger"}},{"type":"Feature","geometry":{"type":"Point","coordinates":[-3.185332,55.946138]},"properties":{"location":"prime.rent.silk","rgb-string":"#ff4000","marker-color":"#ff4000","marker-symbol":"danger"}},{"type":"Feature","geometry":{"type":"Point","coordinates":[-3.185814,55.94603]},"properties":{"location":"renew.slows.basket","rgb-string":"#000000","marker-color":"#000000","marker-symbol":"cross"}},{"type":"Feature","geometry":{"type":"Point","coordinates":[-3.186537,55.944925]},"properties":{"location":"laws.merit.bleak","rgb-string":"#ff0000","marker-color":"#ff0000","marker-symbol":"danger"}},{"type":"Feature","geometry":{"type":"Point","coordinates":[-3.186392,55.944656]},"properties":{"location":"rated.fired.crowds","rgb-string":"#ff4000","marker-color":"#ff4000","marker-symbol":"danger"}},{"type":"Feature","geometry":{"type":"Point","coordinates":[-3.186777,55.944575]},"properties":{"location":"artist.gets.react","rgb-string":"#c0ff00","marker-color":"#c0ff00","marker-symbol":"lighthouse"}},{"type":"Feature","geometry":{"type":"Point","coordinates":[-3.187837,55.943227]},"properties":{"location":"gums.clock.modes","rgb-string":"#000000","marker-color":"#000000","marker-symbol":"cross"}},{"type":"Feature","geometry":{"type":"Point","coordinates":[-3.188608,55.943119]},"properties":{"location":"groups.ideas.script","rgb-string":"#80ff00","marker-color":"#80ff00","marker-symbol":"lighthouse"}},{"type":"Feature","geometry":{"type":"Point","coordinates":[-3.188704,55.943389]},"properties":{"location":"system.speak.guard","rgb-string":"#40ff00","marker-color":"#40ff00","marker-symbol":"lighthouse"}},{"type":"Feature","geometry":{"type":"Point","coordinates":[-3.189234,55.943012]},"properties":{"location":"region.passes.pencil","rgb-string":"#40ff00","marker-color":"#40ff00","marker-symbol":"lighthouse"}},{"type":"Feature","geometry":{"type":"Point","coordinates":[-3.189379,55.943281]},"properties":{"location":"rents.cone.stove","rgb-string":"#40ff00","marker-color":"#40ff00","marker-symbol":"lighthouse"}},{"type":"Feature","geometry":{"type":"Point","coordinates":[-3.190053,55.943173]},"properties":{"location":"shows.fries.lamp","rgb-string":"#40ff00","marker-color":"#40ff00","marker-symbol":"lighthouse"}},{"type":"Feature","geometry":{"type":"Point","coordinates":[-3.191161,55.943362]},"properties":{"location":"meal.feed.large","rgb-string":"#00ff00","marker-color":"#00ff00","marker-symbol":"lighthouse"}},{"type":"Feature","geometry":{"type":"Point","coordinates":[-3.191161,55.942742]},"properties":{"location":"along.spill.limp","rgb-string":"#00ff00","marker-color":"#00ff00","marker-symbol":"lighthouse"}},{"type":"Feature","geometry":{"type":"Point","coordinates":[-3.191016,55.944979]},"properties":{"location":"shapes.sheep.nature","rgb-string":"#ff8000","marker-color":"#ff8000","marker-symbol":"danger"}},{"type":"Feature","geometry":{"type":"Point","coordinates":[-3.191016,55.945248]},"properties":{"location":"maple.limit.hotels","rgb-string":"#ff0000","marker-color":"#ff0000","marker-symbol":"danger"}},{"type":"Feature","geometry":{"type":"Point","coordinates":[-3.191594,55.945195]},"properties":{"location":"hills.feels.tunes","rgb-string":"#ff0000","marker-color":"#ff0000","marker-symbol":"danger"}},{"type":"Feature","geometry":{"type":"Point","coordinates":[-3.191161,55.945976]},"properties":{"location":"simple.rust.audio","rgb-string":"#ff4000","marker-color":"#ff4000","marker-symbol":"danger"}},{"type":"Feature","geometry":{"type":"Point","coordinates":[-3.18933,55.945653]},"properties":{"location":"museum.spicy.horns","rgb-string":"#ffc000","marker-color":"#ffc000","marker-symbol":"danger"}},{"type":"Feature","geometry":{"type":"Point","coordinates":[-3.18856,55.946057]},"properties":{"location":"boost.radar.stress","rgb-string":"#ff0000","marker-color":"#ff0000","marker-symbol":"danger"}},{"type":"Feature","geometry":{"type":"Point","coordinates":[-3.187259,55.945653]},"properties":{"location":"diner.leaves.mutual","rgb-string":"#ff8000","marker-color":"#ff8000","marker-symbol":"danger"}},{"type":"Feature","geometry":{"type":"Point","coordinates":[-3.18697,55.942688]},"properties":{"location":"strut.river.surely","rgb-string":"#c0ff00","marker-color":"#c0ff00","marker-symbol":"lighthouse"}},{"type":"Feature","geometry":{"type":"Point","coordinates":[-3.186344,55.942958]},"properties":{"location":"hers.banks.goat","rgb-string":"#ff8000","marker-color":"#ff8000","marker-symbol":"danger"}},{"type":"Feature","geometry":{"type":"Point","coordinates":[-3.186248,55.942796]},"properties":{"location":"under.retire.bump","rgb-string":"#ff0000","marker-color":"#ff0000","marker-symbol":"danger"}},{"type":"Feature","geometry":{"type":"LineString","coordinates":[[-3.1878,55.9444],[-3.18765,55.9441402],[-3.1875,55.9438804],[-3.1872046,55.9439325],[-3.1870546,55.9441923],[-3.1869046,55.9439325],[-3.1866091,55.9439846],[-3.1863137,55.9440367],[-3.1861208,55.9442665],[-3.1858254,55.9443186],[-3.1855435,55.9444212],[-3.1852837,55.9445712],[-3.1852316,55.9442757],[-3.1851795,55.9439803],[-3.1851274,55.9436849],[-3.1848455,55.9437875],[-3.1845857,55.9439375],[-3.1845336,55.9442329],[-3.1845336,55.9445329],[-3.1844815,55.9448283],[-3.1844815,55.9451283],[-3.1846743,55.9453582],[-3.1848672,55.945588],[-3.1850172,55.9458478],[-3.185247,55.9460406],[-3.185547,55.9460406],[-3.185847,55.9460406],[-3.185997,55.9457808],[-3.186147,55.945521],[-3.186297,55.9452612],[-3.1864898,55.9450314],[-3.1863872,55.9447495],[-3.1866691,55.9446469],[-3.1869646,55.9445948],[-3.18726,55.9445427],[-3.18711,55.9442829],[-3.18726,55.9440231],[-3.1874528,55.9437932],[-3.1876028,55.9435334],[-3.1877957,55.9433036],[-3.1880911,55.9432515],[-3.1883866,55.9431994],[-3.1886685,55.9430968],[-3.1887206,55.9433923],[-3.1889504,55.9431994],[-3.1892102,55.9430494],[-3.189403,55.9432793],[-3.1896985,55.9432272],[-3.1899939,55.9431751],[-3.1902893,55.9432272],[-3.1905848,55.9432793],[-3.1908802,55.9433313],[-3.1911757,55.9433834],[-3.1911757,55.9430834],[-3.1911757,55.9427834],[-3.1910257,55.9430432],[-3.1910257,55.9433432],[-3.1910257,55.9436432],[-3.1910257,55.9439432],[-3.1910257,55.9442432],[-3.1910257,55.9445432],[-3.1910257,55.9448432],[-3.1910257,55.9451432],[-3.1913257,55.9451432],[-3.1916211,55.9451953],[-3.1914711,55.9454552],[-3.1913211,55.945715],[-3.1911711,55.9459748],[-3.1908757,55.9459227],[-3.1905802,55.9458706],[-3.1902848,55.9458185],[-3.1899893,55.9457664],[-3.1896939,55.9457143],[-3.1893985,55.9456622],[-3.1891387,55.9458122],[-3.1888567,55.9459148],[-3.1885969,55.9460648],[-3.188315,55.9459622],[-3.1880331,55.9458596],[-3.1877377,55.9458075],[-3.1874558,55.9457049],[-3.1871603,55.9456528],[-3.1874422,55.9455502],[-3.1877377,55.9454981],[-3.1880331,55.945446],[-3.1883286,55.9453939],[-3.1881786,55.9451341],[-3.1880286,55.9448743],[-3.1878786,55.9446145],[-3.1877286,55.9443547],[-3.187626,55.9440728],[-3.187476,55.943813],[-3.1873734,55.9435311],[-3.1872234,55.9432712],[-3.1871207,55.9429893],[-3.1869707,55.9427295],[-3.1866888,55.9428321],[-3.1864069,55.9429347],[-3.1861771,55.9427419],[-3.18637,55.9429717],[-3.1860745,55.9430238],[-3.1863043,55.9432167],[-3.1864543,55.9434765],[-3.1867141,55.9436265],[-3.1869739,55.9437765],[-3.1872038,55.9439693],[-3.1874336,55.9441621],[-3.1876934,55.9443121]]},"properties":{}}]}