{"type":"FeatureCollection","features":[{"type":"Feature","geometry":{"type":"Point","coordinates":[-3.1875,55.943874]},"properties":{"location":"begins.spider.drips","rgb-string":"#c0ff00","marker-color":"#c0ff00","marker-symbol":"lighthouse"}},{"type":"Feature","geometry":{"type":"Point","coordinates":[-3.187355,55.943604]},"properties":{"location":"shut.stands.media","rgb-string":"#80ff00","marker-color":"#80ff00","marker-symbol":"lighthouse"}},{"type":"Feature","geometry":{"type":"Point","coordinates":[-3.187211,55.943335]},"properties":{"location":"scale.chair.kinds","rgb-string":"#000000","marker-color":"#000000","marker-symbol":"cross"}},{"type":"Feature","geometry":{"type":"Point","coordinates":[-3.187018,55.942877]},"properties":{"location":"valve.elaborate.fortunate","rgb-string":"#c0ff00","marker-color":"#c0ff00","marker-symbol":"lighthouse"}},{"type":"Feature","geometry":{"type":"Point","coordinates":[-3.186248,55.942796]},"properties":{"location":"under.retire.bump","rgb-string":"#ff0000","marker-color":"#ff0000","marker-symbol":"danger"}},{"type":"Feature","geometry":{"type":"Point","coordinates":[-3.185573,55.942877]},"properties":{"location":"dent.shins.cycle","rgb-string":"#ff0000","marker-color":"#ff0000","marker-symbol":"danger"}},{"type":"Feature","geometry":{"type":"Point","coordinates":[-3.185814,55.943551]},"properties":{"location":"record.sofa.sock","rgb-string":"#ff8000","marker-color":"#ff8000","marker-symbol":"danger"}},{"type":"Feature","geometry":{"type":"Point","coordinates":[-3.186103,55.944251]},"properties":{"location":"organs.shape.fantastic","rgb-string":"#ffc000","marker-color":"#ffc000","marker-symbol":"danger"}},{"type":"Feature","geometry":{"type":"Point","coordinates":[-3.18567,55.944359]},"properties":{"location":"atoms.vanish.foods","rgb-string":"#ff4000","marker-color":"#ff4000","marker-symbol":"danger"}},{"type":"Feature","geometry":{"type":"Point","coordinates":[-3.185236,55.944575]},"properties":{"location":"acid.chair.butter","rgb-string":"#ff0000","marker-color":"#ff0000","marker-symbol":"danger"}},{"type":"Feature","geometry":{"type":"Point","coordinates":[-3.184899,55.944736]},"properties":{"location":"slide.leads.stores","rgb-string":"#ff8000","marker-color":"#ff8000","marker-symbol":"danger"}},{"type":"Feature","geometry":{"type":"Point","coordinates":[-3.184465,55.944952]},"properties":{"location":"sports.topic.clocks","rgb-string":"#ff0000","marker-color":"#ff0000","marker-symbol":"danger"}},{"type":"Feature","geometry":{"type":"Point","coordinates":[-3.184513,55.945302]},"properties":{"location":"settle.title.united","rgb-string":"#ff8000","marker-color":"#ff8000","marker-symbol":"danger"}},{"type":"Feature","geometry":{"type":"Point","coordinates":[-3.185332,55.946138]},"properties":{"location":"prime.rent.silk","rgb-string":"#ffc000","marker-color":"#ffc000","marker-symbol":"danger"}},{"type":"Feature","geometry":{"type":"Point","coordinates":[-3.186296,55.945761]},"properties":{"location":"posts.kicked.universally","rgb-string":"#ff8000","marker-color":"#ff8000","marker-symbol":"danger"}},{"type":"Feature","geometry":{"type":"Point","coordinates":[-3.186729,55.945653]},"properties":{"location":"hidden.handle.softly","rgb-string":"#ff0000","marker-color":"#ff0000","marker-symbol":"danger"}},{"type":"Feature","geometry":{"type":"Point","coordinates":[-3.188319,55.945518]},"properties":{"location":"skills.less.herb","rgb-string":"#ff8000","marker-color":"#ff8000","marker-symbol":"danger"}},{"type":"Feature","geometry":{"type":"Point","coordinates":[-3.189186,55.945087]},"properties":{"location":"number.exist.rate","rgb-string":"#000000","marker-color":"#000000","marker-symbol":"cross"}},{"type":"Feature","geometry":{"type":"Point","coordinates":[-3.18986,55.945491]},"properties":{"location":"turkey.limit.ramp","rgb-string":"#ff8000","marker-color":"#ff8000","marker-symbol":"danger"}},{"type":"Feature","geometry":{"type":"Point","coordinates":[-3.189379,55.945949]},"properties":{"location":"coherent.saints.stuck","rgb-string":"#ffc000","marker-color":"#ffc000","marker-symbol":"danger"}},{"type":"Feature","geometry":{"type":"Point","coordinates":[-3.189812,55.94409]},"properties":{"location":"cliff.asleep.wedge","rgb-string":"#40ff00","marker-color":"#40ff00","marker-symbol":"lighthouse"}},{"type":"Feature","geometry":{"type":"Point","coordinates":[-3.188849,55.943658]},"properties":{"location":"labels.hotels.alert","rgb-string":"#000000","marker-color":"#000000","marker-symbol":"cross"}},{"type":"Feature","geometry":{"type":"Point","coordinates":[-3.187982,55.943497]},"properties":{"location":"scare.cubs.resort","rgb-string":"#000000","marker-color":"#000000","marker-symbol":"cross"}},{"type":"Feature","geometry":{"type":"Point","coordinates":[-3.187837,55.943227]},"properties":{"location":"gums.clock.modes","rgb-string":"#80ff00","marker-color":"#80ff00","marker-symbol":"lighthouse"}},{"type":"Feature","geometry":{"type":"Point","coordinates":[-3.187018,55.943982]},"properties":{"location":"renew.ears.tend","rgb-string":"#000000","marker-color":"#000000","marker-symbol":"cross"}},{"type":"Feature","geometry":{"type":"Point","coordinates":[-3.186777,55.944575]},"properties":{"location":"artist.gets.react","rgb-string":"#ffc000","marker-color":"#ffc000","marker-symbol":"danger"}},{"type":"Feature","geometry":{"type":"Point","coordinates":[-3.184803,55.943173]},"properties":{"location":"brings.remedy.latter","rgb-string":"#ff4000","marker-color":"#ff4000","marker-symbol":"danger"}},{"type":"Feature","geometry":{"type":"Point","coordinates":[-3.184754,55.943012]},"properties":{"location":"courier.assume.bill","rgb-string":"#ffc000","marker-color":"#ffc000","marker-symbol":"danger"}},{"type":"Feature","geometry":{"type":"Point","coordinates":[-3.189908,55.942904]},"properties":{"location":"second.launch.miles","rgb-string":"#40ff00","marker-color":"#40ff00","marker-symbol":"lighthouse"}},{"type":"Feature","geometry":{"type":"Point","coordinates":[-3.190727,55.943092]},"properties":{"location":"relate.chill.vest","rgb-string":"#40ff00","marker-color":"#40ff00","marker-symbol":"lighthouse"}},{"type":"Feature","geometry":{"type":"Point","coordinates":[-3.191161,55.943065]},"properties":{"location":"else.urban.museum","rgb-string":"#00ff00","marker-color":"#00ff00","marker-symbol":"lighthouse"}},{"type":"Feature","geometry":{"type":"Point","coordinates":[-3.191113,55.94417]},"properties":{"location":"hills.giant.crate","rgb-string":"#000000","marker-color":"#000000","marker-symbol":"cross"}},{"type":"Feature","geometry":{"type":"Point","coordinates":[-3.191594,55.945195]},"properties":{"location":"hills.feels.tunes","rgb-string":"#ff8000","marker-color":"#ff8000","marker-symbol":"danger"}},{"type":"Feature","geometry":{"type":"LineString","coordinates":[[-3.1878,55.9444],[-3.18765,55.9441402],[-3.1875,55.9438804],[-3.18735,55.9436206],[-3.1872,55.9433608],[-3.1870974,55.9430789],[-3.1869948,55.942797],[-3.1866948,55.942797],[-3.1863948,55.942797],[-3.1860993,55.942849],[-3.1857993,55.942849],[-3.1855039,55.9429011],[-3.1856539,55.943161],[-3.1857565,55.9434429],[-3.1858591,55.9437248],[-3.1860091,55.9439846],[-3.1861117,55.9442665],[-3.1858163,55.9443186],[-3.1855344,55.9444212],[-3.1852746,55.9445712],[-3.1849927,55.9446738],[-3.1847328,55.9448238],[-3.184473,55.9449738],[-3.1845251,55.9452692],[-3.184718,55.945499],[-3.1849108,55.9457289],[-3.1851406,55.9459217],[-3.1853335,55.9461515],[-3.1856154,55.9460489],[-3.1858973,55.9459463],[-3.1861571,55.9457963],[-3.1864525,55.9457442],[-3.1867344,55.9456416],[-3.1867344,55.9453416],[-3.1869273,55.9455714],[-3.1868752,55.945276],[-3.187068,55.9455058],[-3.1872608,55.9457356],[-3.1875563,55.9456835],[-3.1878517,55.9456314],[-3.1881472,55.9455793],[-3.188407,55.9454293],[-3.1886889,55.9453267],[-3.1889487,55.9451767],[-3.1892306,55.9450741],[-3.1894904,55.9452241],[-3.1897202,55.9454169],[-3.1895702,55.9456767],[-3.1894202,55.9459365],[-3.1894723,55.9456411],[-3.1895244,55.9453457],[-3.1895765,55.9450502],[-3.1896286,55.9447548],[-3.1896807,55.9444593],[-3.1897833,55.9441774],[-3.1895235,55.9440274],[-3.1892637,55.9438774],[-3.1890039,55.9437274],[-3.1887084,55.9436753],[-3.188413,55.9436232],[-3.1881311,55.9435206],[-3.1879013,55.9433278],[-3.1876715,55.9435206],[-3.1874416,55.9437135],[-3.1871818,55.9438635],[-3.186952,55.9440563],[-3.186802,55.9437965],[-3.1865066,55.9438486],[-3.1862111,55.9439007],[-3.1859157,55.9439528],[-3.1861455,55.9441456],[-3.1862955,55.9444054],[-3.1860001,55.9444575],[-3.1862955,55.9445096],[-3.1865253,55.9447025],[-3.1867851,55.9445525],[-3.1866351,55.9448123],[-3.1864053,55.9446194],[-3.1861755,55.9444266],[-3.1859457,55.9442337],[-3.1857159,55.9440409],[-3.1854861,55.9438481],[-3.1852563,55.9436552],[-3.1850634,55.9434254],[-3.1848336,55.9432326],[-3.184731,55.9429507],[-3.185031,55.9429507],[-3.185331,55.9429507],[-3.185631,55.9429507],[-3.185931,55.9429507],[-3.186231,55.9429507],[-3.186531,55.9429507],[-3.186831,55.9429507],[-3.187131,55.9429507],[-3.187431,55.9429507],[-3.187731,55.9429507],[-3.188031,55.9429507],[-3.188331,55.9429507],[-3.188481,55.9432105],[-3.1887764,55.9431584],[-3.1890719,55.9431063],[-3.1893673,55.9430542],[-3.1896492,55.9429516],[-3.1899447,55.9428995],[-3.1902401,55.9429516],[-3.190522,55.9430542],[-3.1908175,55.9431063],[-3.1911129,55.9430542],[-3.1911129,55.9433542],[-3.1911129,55.9436542],[-3.1911129,55.9439542],[-3.1911129,55.9442542],[-3.1912629,55.944514],[-3.1914129,55.9447738],[-3.1915155,55.9450557],[-3.1912201,55.9450036],[-3.1909246,55.9449515],[-3.1906292,55.9448994],[-3.1903337,55.9448474],[-3.1900383,55.9447953],[-3.1897429,55.9447432],[-3.1894474,55.9446911],[-3.189152,55.944639],[-3.1888565,55.9445869],[-3.1885611,55.9445348],[-3.1882656,55.9444827],[-3.1879702,55.9444306]]},"properties":{}}]}