{"type":"FeatureCollection","features":[{"type":"Feature","geometry":{"type":"Point","coordinates":[-3.187885,55.944709]},"properties":{"location":"hurt.green.filer","rgb-string":"#ffc000","marker-color":"#ffc000","marker-symbol":"danger"}},{"type":"Feature","geometry":{"type":"Point","coordinates":[-3.18803,55.944979]},"properties":{"location":"agents.mile.crib","rgb-string":"#000000","marker-color":"#000000","marker-symbol":"cross"}},{"type":"Feature","geometry":{"type":"Point","coordinates":[-3.187307,55.944494]},"properties":{"location":"only.fairly.rift","rgb-string":"#c0ff00","marker-color":"#c0ff00","marker-symbol":"lighthouse"}},{"type":"Feature","geometry":{"type":"Point","coordinates":[-3.186777,55.944575]},"properties":{"location":"artist.gets.react","rgb-string":"#000000","marker-color":"#000000","marker-symbol":"cross"}},{"type":"Feature","geometry":{"type":"Point","coordinates":[-3.186729,55.945168]},"properties":{"location":"dragon.bottle.crisp","rgb-string":"#ff4000","marker-color":"#ff4000","marker-symbol":"danger"}},{"type":"Feature","geometry":{"type":"Point","coordinates":[-3.186922,55.945437]},"properties":{"location":"spent.spoon.bolt","rgb-string":"#ff0000","marker-color":"#ff0000","marker-symbol":"danger"}},{"type":"Feature","geometry":{"type":"Point","coordinates":[-3.186729,55.945653]},"properties":{"location":"hidden.handle.softly","rgb-string":"#ff0000","marker-color":"#ff0000","marker-symbol":"danger"}},{"type":"Feature","geometry":{"type":"Point","coordinates":[-3.187259,55.945653]},"properties":{"location":"diner.leaves.mutual","rgb-string":"#ff4000","marker-color":"#ff4000","marker-symbol":"danger"}},{"type":"Feature","geometry":{"type":"Point","coordinates":[-3.188463,55.945761]},"properties":{"location":"bend.tubes.chops","rgb-string":"#ff0000","marker-color":"#ff0000","marker-symbol":"danger"}},{"type":"Feature","geometry":{"type":"Point","coordinates":[-3.18933,55.945653]},"properties":{"location":"museum.spicy.horns","rgb-string":"#ff8000","marker-color":"#ff8000","marker-symbol":"danger"}},{"type":"Feature","geometry":{"type":"Point","coordinates":[-3.190438,55.945383]},"properties":{"location":"jump.crop.fits","rgb-string":"#ff8000","marker-color":"#ff8000","marker-symbol":"danger"}},{"type":"Feature","geometry":{"type":"Point","coordinates":[-3.191016,55.945248]},"properties":{"location":"maple.limit.hotels","rgb-string":"#ff0000","marker-color":"#ff0000","marker-symbol":"danger"}},{"type":"Feature","geometry":{"type":"Point","coordinates":[-3.191594,55.945195]},"properties":{"location":"hills.feels.tunes","rgb-string":"#ff8000","marker-color":"#ff8000","marker-symbol":"danger"}},{"type":"Feature","geometry":{"type":"Point","coordinates":[-3.192221,55.945114]},"properties":{"location":"useful.hike.trades","rgb-string":"#c0ff00","marker-color":"#c0ff00","marker-symbol":"lighthouse"}},{"type":"Feature","geometry":{"type":"Point","coordinates":[-3.191065,55.94444]},"properties":{"location":"paying.crowd.weep","rgb-string":"#40ff00","marker-color":"#40ff00","marker-symbol":"lighthouse"}},{"type":"Feature","geometry":{"type":"Point","coordinates":[-3.191113,55.94417]},"properties":{"location":"hills.giant.crate","rgb-string":"#00ff00","marker-color":"#00ff00","marker-symbol":"lighthouse"}},{"type":"Feature","geometry":{"type":"Point","coordinates":[-3.191113,55.943901]},"properties":{"location":"spicy.bunch.shady","rgb-string":"#00ff00","marker-color":"#00ff00","marker-symbol":"lighthouse"}},{"type":"Feature","geometry":{"type":"Point","coordinates":[-3.190438,55.943982]},"properties":{"location":"pump.wheels.hulk","rgb-string":"#40ff00","marker-color":"#40ff00","marker-symbol":"lighthouse"}},{"type":"Feature","geometry":{"type":"Point","coordinates":[-3.189812,55.94409]},"properties":{"location":"cliff.asleep.wedge","rgb-string":"#40ff00","marker-color":"#40ff00","marker-symbol":"lighthouse"}},{"type":"Feature","geometry":{"type":"Point","coordinates":[-3.190053,55.943173]},"properties":{"location":"shows.fries.lamp","rgb-string":"#40ff00","marker-color":"#40ff00","marker-symbol":"lighthouse"}},{"type":"Feature","geometry":{"type":"Point","coordinates":[-3.190583,55.942823]},"properties":{"location":"tonic.bliss.cove","rgb-string":"#00ff00","marker-color":"#00ff00","marker-symbol":"lighthouse"}},{"type":"Feature","geometry":{"type":"Point","coordinates":[-3.191161,55.943065]},"properties":{"location":"else.urban.museum","rgb-string":"#00ff00","marker-color":"#00ff00","marker-symbol":"lighthouse"}},{"type":"Feature","geometry":{"type":"Point","coordinates":[-3.188704,55.943389]},"properties":{"location":"system.speak.guard","rgb-string":"#00ff00","marker-color":"#00ff00","marker-symbol":"lighthouse"}},{"type":"Feature","geometry":{"type":"Point","coordinates":[-3.188608,55.943119]},"properties":{"location":"groups.ideas.script","rgb-string":"#40ff00","marker-color":"#40ff00","marker-symbol":"lighthouse"}},{"type":"Feature","geometry":{"type":"Point","coordinates":[-3.188271,55.944063]},"properties":{"location":"rush.crown.link","rgb-string":"#00ff00","marker-color":"#00ff00","marker-symbol":"lighthouse"}},{"type":"Feature","geometry":{"type":"Point","coordinates":[-3.186248,55.942796]},"properties":{"location":"under.retire.bump","rgb-string":"#ff8000","marker-color":"#ff8000","marker-symbol":"danger"}},{"type":"Feature","geometry":{"type":"Point","coordinates":[-3.185573,55.942877]},"properties":{"location":"dent.shins.cycle","rgb-string":"#ff4000","marker-color":"#ff4000","marker-symbol":"danger"}},{"type":"Feature","geometry":{"type":"Point","coordinates":[-3.184754,55.943012]},"properties":{"location":"courier.assume.bill","rgb-string":"#ff4000","marker-color":"#ff4000","marker-symbol":"danger"}},{"type":"Feature","geometry":{"type":"Point","coordinates":[-3.185525,55.943982]},"properties":{"location":"manliness.poem.cliff","rgb-string":"#c0ff00","marker-color":"#c0ff00","marker-symbol":"lighthouse"}},{"type":"Feature","geometry":{"type":"Point","coordinates":[-3.18567,55.944359]},"properties":{"location":"atoms.vanish.foods","rgb-string":"#ff8000","marker-color":"#ff8000","marker-symbol":"danger"}},{"type":"Feature","geometry":{"type":"Point","coordinates":[-3.185621,55.945761]},"properties":{"location":"shed.desire.muddy","rgb-string":"#ff8000","marker-color":"#ff8000","marker-symbol":"danger"}},{"type":"Feature","geometry":{"type":"Point","coordinates":[-3.184513,55.945302]},"properties":{"location":"settle.title.united","rgb-string":"#ff0000","marker-color":"#ff0000","marker-symbol":"danger"}},{"type":"Feature","geometry":{"type":"Point","coordinates":[-3.191161,55.945976]},"properties":{"location":"simple.rust.audio","rgb-string":"#000000","marker-color":"#000000","marker-symbol":"cross"}},{"type":"Feature","geometry":{"type":"LineString","coordinates":[[-3.1878,55.9444],[-3.1879026,55.9446819],[-3.1880052,55.9449638],[-3.1878552,55.944704],[-3.1877052,55.9444442],[-3.1874098,55.9444963],[-3.1871143,55.9445484],[-3.1868189,55.9446005],[-3.186537,55.9447031],[-3.1862551,55.9448057],[-3.1864849,55.9449985],[-3.1867447,55.9451485],[-3.1868947,55.9454083],[-3.1867447,55.9456681],[-3.1870447,55.9456681],[-3.1873447,55.9456681],[-3.1876447,55.9456681],[-3.1879401,55.9457202],[-3.1882401,55.9457202],[-3.1885356,55.9457723],[-3.188831,55.9457202],[-3.1891265,55.9456681],[-3.1894265,55.9456681],[-3.1897084,55.9455655],[-3.1900038,55.9455134],[-3.1902857,55.9454108],[-3.1905812,55.9453587],[-3.1908766,55.9453067],[-3.191172,55.9452546],[-3.1914675,55.9452025],[-3.1917629,55.9451504],[-3.1920584,55.9450983],[-3.1917986,55.9449483],[-3.1915388,55.9447983],[-3.1913089,55.9446054],[-3.1910491,55.9444554],[-3.1911012,55.94416],[-3.1911012,55.94386],[-3.1908058,55.9439121],[-3.1905103,55.9439642],[-3.1902149,55.9440163],[-3.1899195,55.9440684],[-3.1899716,55.9437729],[-3.1900236,55.9434775],[-3.1900757,55.943182],[-3.1903056,55.9429892],[-3.1905654,55.9428392],[-3.1908473,55.9429418],[-3.1911292,55.9430444],[-3.1908337,55.9430965],[-3.1905383,55.9431486],[-3.1902429,55.9432007],[-3.1899474,55.9432528],[-3.189652,55.9433049],[-3.1893565,55.943357],[-3.1890565,55.943357],[-3.1887611,55.9434091],[-3.1886111,55.9431493],[-3.1885085,55.9434312],[-3.1884059,55.9437131],[-3.1883033,55.943995],[-3.1880435,55.943845],[-3.1877837,55.943695],[-3.1875238,55.943545],[-3.187264,55.943395],[-3.1870042,55.943245],[-3.1867444,55.943095],[-3.1864846,55.942945],[-3.1862248,55.942795],[-3.1859294,55.9428471],[-3.1856339,55.9428992],[-3.1853385,55.9429513],[-3.185043,55.9430034],[-3.184743,55.9430034],[-3.1849359,55.9432332],[-3.1851287,55.943463],[-3.1853215,55.9436928],[-3.1855144,55.9439226],[-3.185617,55.9442045],[-3.185617,55.9445045],[-3.185617,55.9448045],[-3.185617,55.9451045],[-3.185617,55.9454045],[-3.185617,55.9457045],[-3.1853351,55.9456019],[-3.1850532,55.9454993],[-3.1847713,55.9453967],[-3.1844894,55.9452941],[-3.1847848,55.9453462],[-3.1850802,55.9453983],[-3.1853802,55.9453983],[-3.1856757,55.9454504],[-3.1859757,55.9454504],[-3.1862711,55.9455025],[-3.1865666,55.9455546],[-3.1868666,55.9455546],[-3.187162,55.9456067],[-3.187462,55.9456067],[-3.1877575,55.9456588],[-3.1880575,55.9456588],[-3.1883529,55.9457109],[-3.1886529,55.9457109],[-3.1889483,55.945763],[-3.1892483,55.945763],[-3.1895438,55.9458151],[-3.1898392,55.9458672],[-3.1901392,55.9458672],[-3.1904347,55.9459192],[-3.1907347,55.9459192],[-3.1910301,55.9459713],[-3.1907703,55.9458213],[-3.1905105,55.9456713],[-3.1902286,55.9455687],[-3.1899688,55.9454187],[-3.1896869,55.9453161],[-3.1894271,55.9451661],[-3.1891452,55.9450635],[-3.1888853,55.9449135],[-3.1886034,55.9448109],[-3.1883436,55.9446609],[-3.1880838,55.9445109],[-3.1878019,55.9444083]]},"properties":{}}]}