{"type":"FeatureCollection","features":[{"type":"Feature","geometry":{"type":"Point","coordinates":[-3.187307,55.944494]},"properties":{"location":"only.fairly.rift","rgb-string":"#ffc000","marker-color":"#ffc000","marker-symbol":"danger"}},{"type":"Feature","geometry":{"type":"Point","coordinates":[-3.186777,55.944575]},"properties":{"location":"artist.gets.react","rgb-string":"#ffc000","marker-color":"#ffc000","marker-symbol":"danger"}},{"type":"Feature","geometry":{"type":"Point","coordinates":[-3.186537,55.944925]},"properties":{"location":"laws.merit.bleak","rgb-string":"#000000","marker-color":"#000000","marker-symbol":"cross"}},{"type":"Feature","geometry":{"type":"Point","coordinates":[-3.186392,55.944656]},"properties":{"location":"rated.fired.crowds","rgb-string":"#ff4000","marker-color":"#ff4000","marker-symbol":"danger"}},{"type":"Feature","geometry":{"type":"Point","coordinates":[-3.186729,55.945653]},"properties":{"location":"hidden.handle.softly","rgb-string":"#ff0000","marker-color":"#ff0000","marker-symbol":"danger"}},{"type":"Feature","geometry":{"type":"Point","coordinates":[-3.187259,55.945653]},"properties":{"location":"diner.leaves.mutual","rgb-string":"#ff8000","marker-color":"#ff8000","marker-symbol":"danger"}},{"type":"Feature","geometry":{"type":"Point","coordinates":[-3.187404,55.945949]},"properties":{"location":"slips.mass.baking","rgb-string":"#ffc000","marker-color":"#ffc000","marker-symbol":"danger"}},{"type":"Feature","geometry":{"type":"Point","coordinates":[-3.18803,55.944979]},"properties":{"location":"agents.mile.crib","rgb-string":"#80ff00","marker-color":"#80ff00","marker-symbol":"lighthouse"}},{"type":"Feature","geometry":{"type":"Point","coordinates":[-3.188897,55.945707]},"properties":{"location":"stops.else.chats","rgb-string":"#ff8000","marker-color":"#ff8000","marker-symbol":"danger"}},{"type":"Feature","geometry":{"type":"Point","coordinates":[-3.18933,55.945653]},"properties":{"location":"museum.spicy.horns","rgb-string":"#ff0000","marker-color":"#ff0000","marker-symbol":"danger"}},{"type":"Feature","geometry":{"type":"Point","coordinates":[-3.188945,55.943928]},"properties":{"location":"noted.friday.jams","rgb-string":"#00ff00","marker-color":"#00ff00","marker-symbol":"lighthouse"}},{"type":"Feature","geometry":{"type":"Point","coordinates":[-3.188849,55.943658]},"properties":{"location":"labels.hotels.alert","rgb-string":"#00ff00","marker-color":"#00ff00","marker-symbol":"lighthouse"}},{"type":"Feature","geometry":{"type":"Point","coordinates":[-3.189523,55.943551]},"properties":{"location":"cars.attend.hotels","rgb-string":"#40ff00","marker-color":"#40ff00","marker-symbol":"lighthouse"}},{"type":"Feature","geometry":{"type":"Point","coordinates":[-3.189234,55.943012]},"properties":{"location":"region.passes.pencil","rgb-string":"#40ff00","marker-color":"#40ff00","marker-symbol":"lighthouse"}},{"type":"Feature","geometry":{"type":"Point","coordinates":[-3.189908,55.942904]},"properties":{"location":"second.launch.miles","rgb-string":"#00ff00","marker-color":"#00ff00","marker-symbol":"lighthouse"}},{"type":"Feature","geometry":{"type":"Point","coordinates":[-3.189764,55.942661]},"properties":{"location":"hooked.shine.third","rgb-string":"#40ff00","marker-color":"#40ff00","marker-symbol":"lighthouse"}},{"type":"Feature","geometry":{"type":"Point","coordinates":[-3.190053,55.943173]},"properties":{"location":"shows.fries.lamp","rgb-string":"#40ff00","marker-color":"#40ff00","marker-symbol":"lighthouse"}},{"type":"Feature","geometry":{"type":"Point","coordinates":[-3.190438,55.943982]},"properties":{"location":"pump.wheels.hulk","rgb-string":"#40ff00","marker-color":"#40ff00","marker-symbol":"lighthouse"}},{"type":"Feature","geometry":{"type":"Point","coordinates":[-3.191113,55.943631]},"properties":{"location":"loaf.cheer.slave","rgb-string":"#00ff00","marker-color":"#00ff00","marker-symbol":"lighthouse"}},{"type":"Feature","geometry":{"type":"Point","coordinates":[-3.191161,55.943362]},"properties":{"location":"meal.feed.large","rgb-string":"#00ff00","marker-color":"#00ff00","marker-symbol":"lighthouse"}},{"type":"Feature","geometry":{"type":"Point","coordinates":[-3.191065,55.944709]},"properties":{"location":"estate.gave.votes","rgb-string":"#80ff00","marker-color":"#80ff00","marker-symbol":"lighthouse"}},{"type":"Feature","geometry":{"type":"Point","coordinates":[-3.191594,55.945195]},"properties":{"location":"hills.feels.tunes","rgb-string":"#ff4000","marker-color":"#ff4000","marker-symbol":"danger"}},{"type":"Feature","geometry":{"type":"Point","coordinates":[-3.191257,55.945599]},"properties":{"location":"skins.engage.best","rgb-string":"#ffc000","marker-color":"#ffc000","marker-symbol":"danger"}},{"type":"Feature","geometry":{"type":"Point","coordinates":[-3.191883,55.946003]},"properties":{"location":"stone.undulation.poems","rgb-string":"#ffc000","marker-color":"#ffc000","marker-symbol":"danger"}},{"type":"Feature","geometry":{"type":"Point","coordinates":[-3.187837,55.943227]},"properties":{"location":"gums.clock.modes","rgb-string":"#000000","marker-color":"#000000","marker-symbol":"cross"}},{"type":"Feature","geometry":{"type":"Point","coordinates":[-3.187355,55.943604]},"properties":{"location":"shut.stands.media","rgb-string":"#c0ff00","marker-color":"#c0ff00","marker-symbol":"lighthouse"}},{"type":"Feature","geometry":{"type":"Point","coordinates":[-3.187018,55.942877]},"properties":{"location":"valve.elaborate.fortunate","rgb-string":"#ff4000","marker-color":"#ff4000","marker-symbol":"danger"}},{"type":"Feature","geometry":{"type":"Point","coordinates":[-3.186007,55.943901]},"properties":{"location":"teams.mild.played","rgb-string":"#ffc000","marker-color":"#ffc000","marker-symbol":"danger"}},{"type":"Feature","geometry":{"type":"Point","coordinates":[-3.184899,55.944736]},"properties":{"location":"slide.leads.stores","rgb-string":"#ff8000","marker-color":"#ff8000","marker-symbol":"danger"}},{"type":"Feature","geometry":{"type":"Point","coordinates":[-3.184465,55.944952]},"properties":{"location":"sports.topic.clocks","rgb-string":"#ff4000","marker-color":"#ff4000","marker-symbol":"danger"}},{"type":"Feature","geometry":{"type":"Point","coordinates":[-3.185621,55.945761]},"properties":{"location":"shed.desire.muddy","rgb-string":"#ffc000","marker-color":"#ffc000","marker-symbol":"danger"}},{"type":"Feature","geometry":{"type":"Point","coordinates":[-3.184803,55.943173]},"properties":{"location":"brings.remedy.latter","rgb-string":"#ff4000","marker-color":"#ff4000","marker-symbol":"danger"}},{"type":"Feature","geometry":{"type":"Point","coordinates":[-3.184754,55.943012]},"properties":{"location":"courier.assume.bill","rgb-string":"#ffc000","marker-color":"#ffc000","marker-symbol":"danger"}},{"type":"Feature","geometry":{"type":"LineString","coordinates":[[-3.1878,55.9444],[-3.1875046,55.9444521],[-3.1872091,55.9445042],[-3.1869137,55.9445563],[-3.1866839,55.9447491],[-3.186402,55.9448517],[-3.1865948,55.9450815],[-3.1864448,55.9448217],[-3.1865474,55.9451036],[-3.18665,55.9453855],[-3.1867526,55.9456675],[-3.1870526,55.9456675],[-3.1873526,55.9456675],[-3.1874047,55.9459629],[-3.1875547,55.9457031],[-3.1878501,55.945651],[-3.1881456,55.9455989],[-3.1880935,55.9453035],[-3.1880414,55.945008],[-3.1882712,55.9452009],[-3.188501,55.9453937],[-3.1887308,55.9455865],[-3.1889606,55.9457794],[-3.1892426,55.9456768],[-3.1891905,55.9453813],[-3.1891384,55.9450859],[-3.1890863,55.9447904],[-3.1890342,55.944495],[-3.1889821,55.9441995],[-3.18893,55.9439041],[-3.1888274,55.9436222],[-3.1891228,55.9435701],[-3.1894228,55.9435701],[-3.1893202,55.9432882],[-3.1892176,55.9430063],[-3.1894774,55.9428563],[-3.1893274,55.9431161],[-3.1896093,55.9430135],[-3.1898912,55.9429109],[-3.1897412,55.9426511],[-3.1900231,55.9427537],[-3.1900231,55.9430537],[-3.1901258,55.9433356],[-3.1902758,55.9435954],[-3.1903784,55.9438773],[-3.1906603,55.9437747],[-3.1909422,55.9436721],[-3.1910922,55.9434123],[-3.1910922,55.9437123],[-3.1910922,55.9440123],[-3.1910922,55.9443123],[-3.1910922,55.9446123],[-3.191285,55.9448421],[-3.1914778,55.9450719],[-3.1913752,55.9453538],[-3.1912252,55.9456136],[-3.191485,55.9457636],[-3.1917449,55.9459136],[-3.191485,55.9460636],[-3.1912552,55.9458708],[-3.1910254,55.945678],[-3.1907956,55.9454851],[-3.1905658,55.9452923],[-3.190336,55.9450994],[-3.1901062,55.9449066],[-3.1898764,55.9447138],[-3.1896465,55.9445209],[-3.1894167,55.9443281],[-3.1891569,55.9441781],[-3.1889271,55.9439853],[-3.1886673,55.9438353],[-3.1884375,55.9436424],[-3.1881777,55.9434924],[-3.1879479,55.9432996],[-3.1876881,55.9434496],[-3.1874282,55.9435996],[-3.1872782,55.9433398],[-3.1871282,55.94308],[-3.1869782,55.9428202],[-3.1867854,55.94305],[-3.1866354,55.9427902],[-3.1864854,55.94305],[-3.18619,55.9431021],[-3.1861379,55.9433975],[-3.1860858,55.943693],[-3.1859832,55.9439749],[-3.1857534,55.9441677],[-3.1854936,55.9443177],[-3.1852637,55.9445105],[-3.1850039,55.9446605],[-3.1847441,55.9448105],[-3.1844843,55.9449605],[-3.1847441,55.9451105],[-3.1849739,55.9453034],[-3.1852337,55.9454534],[-3.1854636,55.9456462],[-3.185361,55.9453643],[-3.1853089,55.9450689],[-3.1852063,55.944787],[-3.1851542,55.9444915],[-3.1850516,55.9442096],[-3.1849995,55.9439142],[-3.1848969,55.9436323],[-3.1848448,55.9433368],[-3.1847422,55.9430549],[-3.1850241,55.9431575],[-3.185306,55.9432601],[-3.1855879,55.9433627],[-3.1858698,55.9434653],[-3.1861296,55.9436153],[-3.1864115,55.9437179],[-3.1866713,55.9438679],[-3.1869532,55.9439705],[-3.187213,55.9441205],[-3.1874949,55.9442231],[-3.1877547,55.9443731]]},"properties":{}}]}