{"type":"FeatureCollection","features":[{"type":"Feature","geometry":{"type":"Point","coordinates":[-3.188126,55.943793]},"properties":{"location":"cubs.trucks.help","rgb-string":"#00ff00","marker-color":"#00ff00","marker-symbol":"lighthouse"}},{"type":"Feature","geometry":{"type":"Point","coordinates":[-3.187982,55.943497]},"properties":{"location":"scare.cubs.resort","rgb-string":"#00ff00","marker-color":"#00ff00","marker-symbol":"lighthouse"}},{"type":"Feature","geometry":{"type":"Point","coordinates":[-3.188271,55.944063]},"properties":{"location":"rush.crown.link","rgb-string":"#00ff00","marker-color":"#00ff00","marker-symbol":"lighthouse"}},{"type":"Feature","geometry":{"type":"Point","coordinates":[-3.188415,55.944305]},"properties":{"location":"trades.rare.cable","rgb-string":"#40ff00","marker-color":"#40ff00","marker-symbol":"lighthouse"}},{"type":"Feature","geometry":{"type":"Point","coordinates":[-3.187789,55.944386]},"properties":{"location":"thank.salsa.brain","rgb-string":"#40ff00","marker-color":"#40ff00","marker-symbol":"lighthouse"}},{"type":"Feature","geometry":{"type":"Point","coordinates":[-3.187211,55.943335]},"properties":{"location":"scale.chair.kinds","rgb-string":"#c0ff00","marker-color":"#c0ff00","marker-symbol":"lighthouse"}},{"type":"Feature","geometry":{"type":"Point","coordinates":[-3.187693,55.942769]},"properties":{"location":"panic.squad.danger","rgb-string":"#ff8000","marker-color":"#ff8000","marker-symbol":"danger"}},{"type":"Feature","geometry":{"type":"Point","coordinates":[-3.188704,55.943389]},"properties":{"location":"system.speak.guard","rgb-string":"#40ff00","marker-color":"#40ff00","marker-symbol":"lighthouse"}},{"type":"Feature","geometry":{"type":"Point","coordinates":[-3.189138,55.944197]},"properties":{"location":"spoon.invest.every","rgb-string":"#40ff00","marker-color":"#40ff00","marker-symbol":"lighthouse"}},{"type":"Feature","geometry":{"type":"Point","coordinates":[-3.189812,55.94409]},"properties":{"location":"cliff.asleep.wedge","rgb-string":"#40ff00","marker-color":"#40ff00","marker-symbol":"lighthouse"}},{"type":"Feature","geometry":{"type":"Point","coordinates":[-3.189186,55.945087]},"properties":{"location":"number.exist.rate","rgb-string":"#80ff00","marker-color":"#80ff00","marker-symbol":"lighthouse"}},{"type":"Feature","geometry":{"type":"Point","coordinates":[-3.18933,55.945653]},"properties":{"location":"museum.spicy.horns","rgb-string":"#ff8000","marker-color":"#ff8000","marker-symbol":"danger"}},{"type":"Feature","geometry":{"type":"Point","coordinates":[-3.188897,55.945707]},"properties":{"location":"stops.else.chats","rgb-string":"#ff8000","marker-color":"#ff8000","marker-symbol":"danger"}},{"type":"Feature","geometry":{"type":"Point","coordinates":[-3.188463,55.945761]},"properties":{"location":"bend.tubes.chops","rgb-string":"#000000","marker-color":"#000000","marker-symbol":"cross"}},{"type":"Feature","geometry":{"type":"Point","coordinates":[-3.18856,55.946057]},"properties":{"location":"boost.radar.stress","rgb-string":"#ff0000","marker-color":"#ff0000","marker-symbol":"danger"}},{"type":"Feature","geometry":{"type":"Point","coordinates":[-3.18986,55.945491]},"properties":{"location":"turkey.limit.ramp","rgb-string":"#000000","marker-color":"#000000","marker-symbol":"cross"}},{"type":"Feature","geometry":{"type":"Point","coordinates":[-3.190438,55.945383]},"properties":{"location":"jump.crop.fits","rgb-string":"#000000","marker-color":"#000000","marker-symbol":"cross"}},{"type":"Feature","geometry":{"type":"Point","coordinates":[-3.191161,55.945976]},"properties":{"location":"simple.rust.audio","rgb-string":"#ff0000","marker-color":"#ff0000","marker-symbol":"danger"}},{"type":"Feature","geometry":{"type":"Point","coordinates":[-3.191883,55.946003]},"properties":{"location":"stone.undulation.poems","rgb-string":"#ffc000","marker-color":"#ffc000","marker-symbol":"danger"}},{"type":"Feature","geometry":{"type":"Point","coordinates":[-3.191594,55.945195]},"properties":{"location":"hills.feels.tunes","rgb-string":"#ffc000","marker-color":"#ffc000","marker-symbol":"danger"}},{"type":"Feature","geometry":{"type":"Point","coordinates":[-3.192221,55.945114]},"properties":{"location":"useful.hike.trades","rgb-string":"#ff8000","marker-color":"#ff8000","marker-symbol":"danger"}},{"type":"Feature","geometry":{"type":"Point","coordinates":[-3.191113,55.943901]},"properties":{"location":"spicy.bunch.shady","rgb-string":"#000000","marker-color":"#000000","marker-symbol":"cross"}},{"type":"Feature","geometry":{"type":"Point","coordinates":[-3.191113,55.943631]},"properties":{"location":"loaf.cheer.slave","rgb-string":"#00ff00","marker-color":"#00ff00","marker-symbol":"lighthouse"}},{"type":"Feature","geometry":{"type":"Point","coordinates":[-3.191161,55.942742]},"properties":{"location":"along.spill.limp","rgb-string":"#000000","marker-color":"#000000","marker-symbol":"cross"}},{"type":"Feature","geometry":{"type":"Point","coordinates":[-3.190583,55.942823]},"properties":{"location":"tonic.bliss.cove","rgb-string":"#40ff00","marker-color":"#40ff00","marker-symbol":"lighthouse"}},{"type":"Feature","geometry":{"type":"Point","coordinates":[-3.186103,55.944251]},"properties":{"location":"organs.shape.fantastic","rgb-string":"#c0ff00","marker-color":"#c0ff00","marker-symbol":"lighthouse"}},{"type":"Feature","geometry":{"type":"Point","coordinates":[-3.185814,55.943551]},"properties":{"location":"record.sofa.sock","rgb-string":"#ffc000","marker-color":"#ffc000","marker-symbol":"danger"}},{"type":"Feature","geometry":{"type":"Point","coordinates":[-3.185525,55.943982]},"properties":{"location":"manliness.poem.cliff","rgb-string":"#ff8000","marker-color":"#ff8000","marker-symbol":"danger"}},{"type":"Feature","geometry":{"type":"Point","coordinates":[-3.184947,55.943443]},"properties":{"location":"sentences.sings.modern","rgb-string":"#ff8000","marker-color":"#ff8000","marker-symbol":"danger"}},{"type":"Feature","geometry":{"type":"Point","coordinates":[-3.184803,55.943173]},"properties":{"location":"brings.remedy.latter","rgb-string":"#ffc000","marker-color":"#ffc000","marker-symbol":"danger"}},{"type":"Feature","geometry":{"type":"Point","coordinates":[-3.184754,55.943012]},"properties":{"location":"courier.assume.bill","rgb-string":"#ff4000","marker-color":"#ff4000","marker-symbol":"danger"}},{"type":"Feature","geometry":{"type":"Point","coordinates":[-3.184465,55.944952]},"properties":{"location":"sports.topic.clocks","rgb-string":"#ff4000","marker-color":"#ff4000","marker-symbol":"danger"}},{"type":"Feature","geometry":{"type":"Point","coordinates":[-3.184513,55.945302]},"properties":{"location":"settle.title.united","rgb-string":"#000000","marker-color":"#000000","marker-symbol":"cross"}},{"type":"Feature","geometry":{"type":"LineString","coordinates":[[-3.1878,55.9444],[-3.1876072,55.9441702],[-3.1877098,55.9438883],[-3.1880052,55.9438362],[-3.1880052,55.9435362],[-3.1881552,55.943796],[-3.1882578,55.9440779],[-3.1884507,55.9443077],[-3.1881552,55.9443598],[-3.1878552,55.9443598],[-3.1877052,55.9441],[-3.1875552,55.9438402],[-3.1874052,55.9435804],[-3.1872124,55.9433506],[-3.1874052,55.9431208],[-3.187598,55.9428909],[-3.18788,55.9429936],[-3.1881398,55.9431436],[-3.1884217,55.9432462],[-3.1886815,55.9433962],[-3.1888315,55.943656],[-3.1889815,55.9439158],[-3.1891315,55.9441756],[-3.1894269,55.9441235],[-3.1897224,55.9440714],[-3.1895724,55.9443312],[-3.1894224,55.944591],[-3.1893198,55.9448729],[-3.1891698,55.9451327],[-3.1892724,55.9454146],[-3.1893245,55.9457101],[-3.1890245,55.9457101],[-3.188729,55.9457622],[-3.188429,55.9457622],[-3.1885316,55.9460441],[-3.1888135,55.9459415],[-3.1890954,55.9458389],[-3.1893773,55.9457363],[-3.1896372,55.9455863],[-3.1899191,55.9454836],[-3.1902145,55.9454316],[-3.1905099,55.9453795],[-3.1907398,55.9455723],[-3.1909696,55.9457651],[-3.1911624,55.9459949],[-3.1914624,55.9459949],[-3.1917624,55.9459949],[-3.1917103,55.9456995],[-3.1916582,55.9454041],[-3.1915556,55.9451222],[-3.1918556,55.9451222],[-3.1921556,55.9451222],[-3.1919628,55.9448923],[-3.1917699,55.9446625],[-3.1915771,55.9444327],[-3.1913843,55.9442029],[-3.1911914,55.9439731],[-3.1911393,55.9436776],[-3.1911393,55.9433776],[-3.1911393,55.9430776],[-3.1911393,55.9427776],[-3.1908439,55.9428297],[-3.1905439,55.9428297],[-3.190262,55.9429323],[-3.1899801,55.943035],[-3.1896982,55.9431376],[-3.1894163,55.9432402],[-3.1891344,55.9433428],[-3.1888524,55.9434454],[-3.1885705,55.943548],[-3.1882886,55.9436506],[-3.1880067,55.9437532],[-3.1877248,55.9438558],[-3.1874294,55.9439079],[-3.1871475,55.9440105],[-3.1869975,55.9437507],[-3.1867377,55.9439007],[-3.1864779,55.9440507],[-3.1861824,55.9441028],[-3.1860324,55.943843],[-3.1858396,55.9436132],[-3.1856467,55.943843],[-3.1853869,55.943693],[-3.1851271,55.943543],[-3.1848673,55.943393],[-3.1847647,55.9431111],[-3.1847126,55.9428156],[-3.1845626,55.9430754],[-3.1848445,55.9429728],[-3.1847924,55.9432683],[-3.1847403,55.9435637],[-3.1846882,55.9438592],[-3.1846361,55.9441546],[-3.184584,55.94445],[-3.184532,55.9447455],[-3.1844293,55.9450274],[-3.184532,55.9453093],[-3.1848139,55.9452067],[-3.1850958,55.9451041],[-3.1853777,55.9450015],[-3.1856731,55.9449494],[-3.1859686,55.9448973],[-3.1862505,55.9447947],[-3.1865459,55.9447426],[-3.1868278,55.94464],[-3.1871233,55.9445879],[-3.1874052,55.9444853],[-3.1877006,55.9444332]]},"properties":{}}]}